stop_id,stop_name,stop_lat,stop_lon
1000,Dole Ave/Cheddar Rd (Reservoir),-37.7007748061827,145.018951051008
10001,Rex St/Taylors Rd (Kings Park),-37.7269752097338,144.776152425766
10002,Yuille St/Centenary Ave (Melton),-37.676159502415,144.595789405034
10009,Gum Rd/Main Rd West (Albanvale),-37.7414971143105,144.775899388911
1001,Lloyd Ave/Cheddar Rd (Reservoir),-37.6991830099559,145.019685286526
10010,Kings Rd/Main Rd West (St Albans),-37.7419455261301,144.78008474429
10011,Moffat St/Main Rd West (St Albans),-37.7423246041343,144.783466504334
10012,Washington St/Main Rd West (St Albans),-37.7427956612665,144.787912291551
10013,Kate St/Main Rd West (St Albans),-37.7435693788543,144.79457341719
10014,Raleighs Rd/Centenary Ave (Melton),-37.6753043554371,144.588776428554
10016,Melton Cemetery/O'Neills Rd (Melton),-37.6749805118185,144.578254443051
10017,Emil Park/O'Neills Rd (Melton),-37.6787589472387,144.577507964116
10018,Reservoir Shopping Centre/Broadway (Reservoir),-37.7170328672711,145.009884746992
10019,Northumberland Rd/Pascoe St (Pascoe Vale),-37.7162864982502,144.934044111346
1002,Liston Ave/Cheddar Rd (Reservoir),-37.6974477807687,145.021001731137
10020,Westbreen Primary School/Pascoe St (Pascoe Vale),-37.7165528085859,144.93638501755
10021,Joffre Rd/Boundary Rd (Pascoe Vale),-37.7169149244782,144.940084629272
10022,Kent Rd/Cumberland Rd (Pascoe Vale),-37.7207108444765,144.940195032027
10023,Warwick Rd/Cumberland Rd (Pascoe Vale),-37.7222029159315,144.93997217227
10025,Daley St/Cumberland Rd (Pascoe Vale),-37.7250149221736,144.939474463651
10026,Pleasant St/Cumberland Rd (Pascoe Vale),-37.7271175154113,144.939121187603
10027,Olive Gr/Cumberland Rd (Pascoe Vale),-37.7292291137687,144.938767639076
10028,Gaffney St/Cumberland Rd (Pascoe Vale),-37.7321654275021,144.938164255519
10029,Pardy St/Cumberland Rd (Pascoe Vale),-37.7339285078095,144.937979179197
1003,Keon Pde/Dalton Rd (Thomastown),-37.6950594448846,145.023140702111
10030,Eastgate St/Cumberland Rd (Pascoe Vale South),-37.735500246981,144.937674580612
10031,Bell St/Cumberland Rd (Pascoe Vale South),-37.7376114386909,144.937298255856
10032,Balmoral Ave/Bell St (Pascoe Vale South),-37.7387922621113,144.941952149155
10033,Royal Pde/Bell St (Pascoe Vale South),-37.7394039365998,144.947053144257
10034,Davis St/Bell St (Coburg),-37.7397931679341,144.950775896162
10035,Linsey St/Bell St (Coburg),-37.7400860492014,144.953627538208
10036,Kelson St/Bell St (Coburg),-37.7403257576678,144.956015392763
10037,Nelson St/Bell St (Coburg),-37.7407178508437,144.959919735603
10038,Coburg Cemetery/Bell St (Preston),-37.7431050613587,144.982369786281
10039,Tasman St/Bell St (Preston),-37.7435479025381,144.985603482307
1004,Wood St/Dalton Rd (Thomastown),-37.6920167090992,145.025489688512
10040,Gilbert Rd/Bell St (Preston),-37.7439754420447,144.98952990655
10041,Erin St/Bell St (Preston),-37.7442766703129,144.992926395827
10042,Penola St/Bell St (Preston),-37.744553226327,144.995937718793
10043,Bell Railway Station/Bell St (Preston),-37.7451615025948,145.002038395218
10044,Plenty Rd/Bell St (Preston),-37.745482674572,145.005037245052
10045,Panch Health Centre/Bell St (Preston),-37.7458204493631,145.008489639719
10047,O'Keefe St/Bell St (Preston),-37.7465001441046,145.014588625826
10048,Liberty Pde/Bell St (Bellfield (3081)),-37.7494193991356,145.03714180246
10049,Oriel Rd/Bell St (Bellfield (3081)),-37.7497294939851,145.039528398869
1005,Settlement Rd/Dalton Rd (Thomastown),-37.688274706917,145.028061127922
10050,Plunkett St/Bell St (Bellfield (3081)),-37.7503134033654,145.042668235632
10051,Waterdale Rd/Bell St (Bellfield (3081)),-37.7510311957709,145.04519170459
10052,Gotha St/Bell St (Heidelberg Heights),-37.7518945678679,145.047802197117
10053,Austin Repat MC/Bell St (Heidelberg Heights),-37.7526760554476,145.049824690507
10054,Myrtle St/Bell St (Heidelberg Heights),-37.7538407194365,145.052677103396
10055,Warringal SC/Cape St (Heidelberg),-37.7555960155404,145.067330173759
10056,Heidelberg Primary School/Darebin St (Heidelberg),-37.754558645793,145.069468363305
10057,Brown St/Rosanna Rd (Heidelberg),-37.7521039802204,145.070360724665
10058,Reid St/Rosanna Rd (Heidelberg),-37.7500108387706,145.07076694425
10059,St James Rd/Rosanna Rd (Heidelberg),-37.7485734334284,145.071042616379
1006,Alison St/Dalton Rd (Thomastown),-37.6840026164517,145.029115466715
10060,Station Rd/Rosanna Rd (Rosanna),-37.7456973192213,145.071514514712
10061,Millicent St/Lower Plenty Rd (Rosanna),-37.740489475605,145.069380008585
10062,Arden Cres/Lower Plenty Rd (Rosanna),-37.7396741964104,145.070774326672
10063,Milford Gr/Lower Plenty Rd (Rosanna),-37.7380353192632,145.073608478265
10064,Lyons St/Hyde St (Footscray),-37.808194599294,144.899738180697
10065,Harris St/Hyde St (Footscray),-37.8111536733601,144.898404849966
10066,Yarraville Gardens/Hyde St (Yarraville),-37.8142694982583,144.897271427458
10067,Lennox St/Hyde St (Yarraville),-37.8161102754984,144.896901122621
10068,Earsdon St/Hyde St (Yarraville),-37.8182210603453,144.896511771936
10069,Little Hyde St/Hyde St (Yarraville),-37.8198829085166,144.896214666035
1007,Buckingham Ct/Dalton Rd (Thomastown),-37.680551864142,145.02970572115
10070,Hyde St/Francis St (Yarraville),-37.8217861969501,144.895308580902
10071,Stephen St/Francis St (Yarraville),-37.8214643928225,144.892432167387
10072,Hughes St/Francis St (Yarraville),-37.8212525305232,144.890665969073
10073,Evans St/Bridge St (Port Melbourne),-37.8341849770947,144.940587838545
10074,158 Bridge St (Port Melbourne),-37.8358840983191,144.942415438338
10075,Bay Street Shops/Bay St (Port Melbourne),-37.8385097951148,144.942603825434
10076,Cruikshank St/Liardet St (Port Melbourne),-37.840021038451,144.945027687326
10077,Bridport St/Richardson St (Albert Park),-37.8423527943986,144.949031189178
10078,Albert Park Shops/Richardson St (Albert Park),-37.8435791485573,144.951145000119
10079,Kerferd Rd/Richardson St (Albert Park),-37.8455751916547,144.954510396872
1008,Wattle St/Dalton Rd (Thomastown),-37.6785566228045,145.030030641471
10080,Middle Park Primary School/Richardson St (Middle Park),-37.8471859347495,144.957488846653
10081,Wright St/Richardson St (Middle Park),-37.8480059720992,144.959045903604
10082,Nimmo St/Richardson St (Middle Park),-37.8497488055349,144.962373225181
10084,Armstrong St/Danks St (Middle Park),-37.8530823730179,144.962849712065
10086,Fraser St/Patterson St (St Kilda West),-37.8553614718585,144.966969580287
10087,Jacoby Reserve/Park St (St Kilda West),-37.857196519313,144.970431279347
10088,44 Park St (St Kilda),-37.8590567487359,144.972744456679
1009,Maple St/Dalton Rd (Lalor),-37.6750067718327,145.030623419268
10093,Warland Rd/Carrington St (Hampton East),-37.9360692109189,145.033722880507
10094,Dane Rd/Spring Rd (Hampton East),-37.9399457432238,145.033813005243
10095,Besant St/Spring Rd (Hampton East),-37.9425933069893,145.033162090989
10099,Bluff Rd/Wickham Rd (Hampton),-37.9428871861054,145.023276946282
101,Aquarena/Williamsons Rd (Templestowe Lower),-37.7743757026665,145.126379451799
1010,Deakin Ave/Dalton Rd (Lalor),-37.6717444155121,145.031163183414
10100,June St/Bluff Rd (Hampton),-37.9455044051717,145.022432980989
10101,Abberfield Nursing Home/Bluff Rd (Sandringham),-37.9480554857944,145.021943511347
10102,Sandringham College Highett/Bluff Rd (Sandringham),-37.9507765583471,145.021381159448
10103,Bay Rd/Bluff Rd (Sandringham),-37.9543238343388,145.02064862986
10104,Holloway Rd/Bluff Rd (Sandringham),-37.9576993833329,145.019886489387
10105,College Gr/Balcombe Rd (Black Rock),-37.9756784591884,145.018868321702
10106,Cullinane St/Balcombe Rd (Black Rock),-37.9760314717089,145.021101575271
10107,Hunter Ave/Balcombe Rd (Black Rock),-37.9763851894335,145.023915444458
10108,Summerhill Rd/Balcombe Rd (Beaumaris),-37.9766815484455,145.026537339706
10109,Haydens Rd/Balcombe Rd (Beaumaris),-37.9771006239567,145.030032594506
1011,Ruth St/Dalton Rd (Lalor),-37.6698660809159,145.031473589013
10110,McNaught St/Balcombe Rd (Beaumaris),-37.9780535088783,145.035278291456
10111,Morey St/Balcombe Rd (Beaumaris),-37.9781400954927,145.039385913983
10112,Thistle St/Mt Alexander Rd (Essendon),-37.7508498052928,144.914265337532
10113,Ryland Ave/Maroondah Hwy (Croydon),-37.7900877520187,145.266117597885
10114,Stirling Rd/Maroondah Hwy (Croydon),-37.788496000432,145.270640431011
10118,Bonnie View Rd/Maroondah Hwy (Croydon North),-37.7810814161396,145.288084053819
10119,Golf Links Rd/Maroondah Hwy (Croydon North),-37.7782926651986,145.292156522275
1012,Queen St/Dalton Rd (Lalor),-37.6680506118703,145.031770978785
10120,Primrose Rd/Maroondah Hwy (Croydon North),-37.774644952982,145.292933049614
10121,Dorset Rd/Maroondah Hwy (Croydon),-37.7713638753331,145.294756935875
10123,Maroondah Golf Park/Maroondah Hwy (Mooroolbark),-37.7670228090825,145.301191499435
10124,Old Melbourne Rd/Maroondah Hwy (Chirnside Park),-37.7659653920136,145.303486219138
10125,Chirnside Homemaker Centre/Maroondah Hwy (Mooroolbark),-37.7642103867303,145.306784446376
10126,Fletcher Rd/Maroondah Hwy (Mooroolbark),-37.7619086451591,145.310299296251
1013,Curtin Ave/Dalton Rd (Lalor),-37.6655075668259,145.032212274527
10131,Powell St/Spring St (Reservoir),-37.7266367636375,145.001197509639
10132,Frankston St/Spring St (Reservoir),-37.7249477167905,145.001503874901
10133,Broughton Ave/Spring St (Reservoir),-37.7236987058566,145.00171897877
10134,Reservoir St/Spring St (Reservoir),-37.7216175670766,145.002818682471
10135,Croft Cres/Spring St (Reservoir),-37.7203160839791,145.004192367777
10137,Viola St/Spring St (Reservoir),-37.7187863161297,145.005390607886
10138,Compton St/Edwardes St (Reservoir),-37.7158732040677,145.002065393359
10139,Kelsby St/Edwardes St (Reservoir),-37.7154060444223,144.997903201756
1014,Childs Rd/Dalton Rd (Lalor),-37.661937573433,145.031059557054
10140,Gilbert Rd/Edwardes St (Reservoir),-37.7160500398151,144.992848909084
10141,Pitt St/Edwardes St (Reservoir),-37.7143332007548,144.987824373233
10142,Newlands Rd/Edwardes St (Reservoir),-37.7140091064675,144.984679462532
10144,Newlands Rd/Henty St (Reservoir),-37.717525758343,144.982689600907
10145,Kurnai Ave/Henty St (Reservoir),-37.7177101265555,144.984511100944
10146,Wattlebrae St/Henty St (Reservoir),-37.7179159329451,144.989701426112
10147,Boniview St/Henty St (Reservoir),-37.7181988925729,144.991497602642
10148,Henty St/Gilbert Rd (Reservoir),-37.7186085135132,144.993324410021
10149,Kia Ora Rd/Gilbert Rd (Reservoir),-37.7200282682515,144.993081885542
1015,Holroyd Dr/Dalton Rd (Epping),-37.6594022522618,145.030344363639
10150,Dwyer Ave/Gilbert Rd (Reservoir),-37.7237844428489,144.992447253617
10151,Knox St/Gilbert Rd (Reservoir),-37.7254198005379,144.992164830629
10152,Beatty St/Gilbert Rd (Reservoir),-37.7264075636208,144.991956616564
10153,Gilbert Rd/Regent St (Preston),-37.7294489034088,144.99168157113
10154,Edwardes St/Kelsby St (Reservoir),-37.71514120301,144.998227973303
10155,Leamington St/Kelsby St (Reservoir),-37.7125084575234,144.99868452395
10157,Seaver Gr/Leamington St (Reservoir),-37.7112760063748,144.990867797684
10158,Gill St/Banbury Rd (Reservoir),-37.7126010689911,144.989300571478
10159,Edwardes St/Banbury Rd (Reservoir),-37.7140476450131,144.989045925738
1016,Grand Pde/Dalton Rd (Epping),-37.6568665140326,145.030683430672
10160,Luther College/Plymouth Rd (Croydon),-37.7831707694491,145.271320960062
10161,Luther College/Plymouth Rd (Croydon Hills),-37.7834534919208,145.273392385009
10162,Plymouth Rd/Yarra Rd (Croydon),-37.7836579867166,145.274432312984
10164,Clement Cres/Croydon Rd (Croydon),-37.7845250415415,145.283814444267
10165,Grandview Ave/Croydon Rd (Croydon),-37.7866107041025,145.283459593559
10166,Samuel St/Croydon Rd (Croydon),-37.7899955769617,145.282586331284
10167,Croydon PS/Croydon Rd (Croydon),-37.792555075049,145.281970593889
10168,Larissa Ave/Maroondah Hwy (Ringwood),-37.8120950423016,145.235749853181
10169,Oliver St/Maroondah Hwy (Ringwood),-37.809452191787,145.239209153042
1017,Melbourne Polytechnic/Dalton Rd (Epping),-37.6545308430566,145.031130537616
10170,Rupert St/Maroondah Hwy (Ringwood),-37.8085028330646,145.240208581182
10171,Leonard St/Maroondah Hwy (Ringwood),-37.8070717054933,145.242139478376
10172,Mines Rd/Maroondah Hwy (Ringwood East),-37.80504760727,145.244799931479
10173,Dublin Rd/Maroondah Hwy (Ringwood East),-37.8026807656661,145.247445622889
10174,Everard Rd/Maroondah Hwy (Ringwood East),-37.8017625791907,145.248728066053
10175,463 Maroondah Hwy (Ringwood),-37.8003206064504,145.250545297788
10176,Oban Rd/Maroondah Hwy (Ringwood),-37.7980485981202,145.25351776554
10177,Maggs St/Maroondah Hwy (Croydon),-37.7939893189291,145.259348562498
10178,Hinkley Ave/Maroondah Hwy (Croydon),-37.7919673170091,145.262178366826
10179,Cherry Tree Gr/Maroondah Hwy (Croydon),-37.7896061186643,145.267071419236
1018,Coulstock St/Davisson St (Epping),-37.6497229445089,145.029784042078
10180,Highland Ave/Maroondah Hwy (Croydon),-37.7882472451959,145.270884705629
10184,Warrien Rd/Maroondah Hwy (Croydon North),-37.7823758997004,145.284761206326
10185,Bonnie View Rd/Maroondah Hwy (Croydon North),-37.7809200752837,145.288144550432
10186,Primrose Rd/Maroondah Hwy (Croydon North),-37.7746256187005,145.292842662813
10187,Exeter Rd/Maroondah Hwy (Croydon North),-37.7704457773733,145.295459224002
10188,Maroondah Golf Park/Maroondah Hwy (Chirnside Park),-37.7663462841892,145.301774613333
10189,Old Melbourne Rd/Maroondah Hwy (Chirnside Park),-37.7652757367989,145.30441017914
1019,Davisson St/Rufus St (Epping),-37.648974287265,145.030823916894
10190,Chirnside Homemaker Centre/Maroondah Hwy (Chirnside Park),-37.7640639541758,145.306628852888
10195,High St/Miller St (Preston),-37.7521159780623,145.000285033547
10196,William St/Regent St (Preston),-37.7306969342053,145.003607313148
10197,Regent St/Spring St (Preston),-37.7297172096922,145.00057004496
10198,Rona St/Spring St (Reservoir),-37.7284323633989,145.000797492099
10199,Powell St/Spring St (Reservoir),-37.7266888868763,145.001082646923
102,Lalor Shops/David St (Lalor),-37.6717375924273,145.016775712647
1020,Keith Ave/Greenbrook Dr (Epping),-37.6476806381836,145.035391740787
10200,Frankston St/Spring St (Reservoir),-37.7244971331785,145.001504640905
10201,Taylor Ave/Spring St (Reservoir),-37.7233740394234,145.001705013327
10202,Moore Cres/Spring St (Reservoir),-37.7213758928874,145.002915936289
10203,Cleeland St/Spring St (Reservoir),-37.7179537668836,145.005719247996
10204,Reservoir Station/Edwardes St (Reservoir),-37.7164301049229,145.006213889435
10205,Olive St/Edwardes St (Reservoir),-37.7162117682285,145.004495372963
10206,Kelsby St/Edwardes St (Reservoir),-37.7155467476026,144.998228402343
10207,Willoughby St/Edwardes St (Reservoir),-37.715386583093,144.996757941441
10208,Gilbert Rd/Edwardes St (Reservoir),-37.7163162177419,144.992603490155
10209,Pitt St/Edwardes St (Reservoir),-37.7144532055442,144.987991290162
1021,Mcdonalds Rd/Greenbrook Dr (Epping),-37.6465387774898,145.03663456348
10210,Newlands Rd/Edwardes St (Reservoir),-37.7140776781267,144.984473409326
10211,Newlands Rd/Henty St (Reservoir),-37.7174370397099,144.98277142033
10212,Meadowbank Dr/Furlong Rd (Sunshine North),-37.7614226209016,144.822250641559
10213,Sunshine Hospital/Furlong Rd (St Albans),-37.7607382042708,144.815948206307
10214,Ironbark St/Furlong Rd (St Albans),-37.7604352926044,144.813221537622
10215,Ginifer Station/Mulhall Dr (St Albans),-37.7581458498336,144.810769132835
1022,Greenbrook SC/McDonalds Rd (Epping),-37.6458393810395,145.040098476123
10224,St Albans Secondary College/Main Rd East (St Albans),-37.744973698792,144.806561198365
10225,Lester Ave/Main Rd East (St Albans),-37.7454218182473,144.810304367373
10227,Lyons St/Hyde St (Footscray),-37.8087856268435,144.899528338415
10228,Princess St/Hyde St (Footscray),-37.8112470773917,144.898084152255
10229,Somerville Rd/Hyde St (Yarraville),-37.8146805805543,144.897078012045
1023,Greenview Ct/McDonalds Rd (Epping),-37.6462201101648,145.043488647868
10230,Lennox St/Hyde St (Yarraville),-37.8163328163485,144.896747130645
10231,204 Hyde St (Yarraville),-37.817878182377,144.896487426285
10232,Kent St/Hyde St (Yarraville),-37.8201603021406,144.89610454697
10233,Hyde St/Francis St (Yarraville),-37.82174027281,144.895764305624
10234,Ballarat St/Francis St (Yarraville),-37.8211168696396,144.890135892941
10235,Bunninyong St/Francis St (Yarraville),-37.820815603248,144.887406628987
10237,271 Narre Warren North Rd (Narre Warren),-37.9994023873828,145.312015181996
10238,Hansen Reserve/Roberts St (West Footscray),-37.8052252087247,144.870882263464
10239,Indwe St/Roberts St (West Footscray),-37.8031871955484,144.871304240436
1024,Merrill Dr/McDonalds Rd (Epping),-37.6464881404048,145.046065761508
10240,Sunshine Rd/Roberts St (West Footscray),-37.8011366846683,144.871533476252
10241,Stradbroke St/Sunshine Rd (West Footscray),-37.801527535938,144.879211189295
10242,West Footscray Station/Sunshine Rd (West Footscray),-37.8023513001369,144.883423971503
10243,Ross St/Bridge St (Port Melbourne),-37.8342410741698,144.940188590913
10244,Station St/Bridge St (Port Melbourne),-37.8354328843644,144.941348520883
10245,Bay Street Shops/Bridge St (Port Melbourne),-37.8367488465321,144.943425431978
10246,Cruikshank St/Liardet St (Port Melbourne),-37.8403080834936,144.944951539373
10247,Bridport St/Richardson St (Albert Park),-37.842237185493,144.948602569713
10248,Albert Park Shops/Richardson St (Albert Park),-37.8441038352088,144.951778228305
10249,Kerferd Rd/Richardson St (Albert Park),-37.8462837577366,144.95535450914
1025,Meadow Glen Dr/McDonalds Rd (Epping),-37.6471229135216,145.051750169274
10250,Middle Park Primary School/Richardson St (Middle Park),-37.8475431355944,144.957819926982
10251,Wright St/Richardson St (Middle Park),-37.8481404922491,144.95900810025
10252,Nimmo St/Richardson St (Middle Park),-37.8498645254551,144.962290484665
10253,Armstrong St/Richardson St (Middle Park),-37.8506555147453,144.963734799607
10254,Armstrong St/Danks St (Middle Park),-37.8531222979419,144.962553111487
10255,Langridge St/Patterson St (Middle Park),-37.8548344835061,144.965677001985
10256,Fraser St/Park St (St Kilda West),-37.8554967795864,144.966977228552
10257,Jacoby Reserve/Park St (St Kilda West),-37.8575468332173,144.970887681894
10258,Sarnia Ct/Kurrajong Rd (Narre Warren),-38.0022262621423,145.312861553139
10259,High St/Memorial Ave (Epping),-37.6448643089725,145.028099037252
1026,Bridle Ct/Meadow Glen Dr (Epping),-37.6460413890453,145.05120039929
10260,Watermoor Ave/Eycot St (Kilsyth South),-37.8373537799969,145.303670268403
10261,Watermoor Ave/Rendcomb St (Kilsyth South),-37.8363912595047,145.304419574966
10262,Bibury Ct/Rendcomb St (Kilsyth South),-37.8353600526642,145.306659021403
10263,Collier Rd/Rendcomb St (Kilsyth South),-37.8340186608794,145.306757869102
10264,Watermoor Ave/Collier Rd (Kilsyth South),-37.8333464635902,145.305136970849
10265,Colchester Rd/Collier Rd (Kilsyth South),-37.8327975958041,145.302695150739
10266,Colchester Rd/Allambanan Dr (Bayswater North),-37.8331679554878,145.301504919372
10267,Toolimerin Ave/Allambanan Dr (Bayswater North),-37.832361041708,145.299921268894
10268,Bagora Ct/Allambanan Dr (Bayswater North),-37.8315536148615,145.298303576711
10269,Canterbury Gardens/Allambanan Dr (Bayswater North),-37.8315057970013,145.294998140921
1027,Derby Dr/Meadow Glen Dr (Epping),-37.6438311700715,145.051609505415
10270,Aylesbury Ave/Blandford Cres (Bayswater North),-37.8310369807399,145.292497801192
10271,Sherbourne Ave/Blandford Cres (Bayswater North),-37.8301583665162,145.292813478483
10272,Stuart St/Blandford Cres (Bayswater North),-37.8281633192335,145.293825238823
10273,Bayswater North PS/Stuart St (Bayswater North),-37.8275296319939,145.294873779964
10274,Burdekin Ave/Colbury Rd (Bayswater North),-37.8287875619597,145.29648098782
10275,Grant Dr/Burdekin Ave (Bayswater North),-37.8277349943104,145.297232365968
10276,Leighton Rd/Burdekin Ave (Bayswater North),-37.8256322664672,145.297655634002
10277,Anderson Cl/Burdekin Ave (Bayswater North),-37.8246652371254,145.300586427353
10278,Colchester Rd/Burdekin Ave (Bayswater North),-37.8263131018074,145.302991429865
10279,Canterbury Rd/Colchester Rd (Bayswater North),-37.8237926426,145.303821742608
1028,Glendale Ave/Derby Dr (Epping),-37.6431006686207,145.048307885434
10283,Garden St/Liverpool Rd (Kilsyth),-37.8169654876089,145.316667634642
10284,Lade Ave/Liverpool Rd (Kilsyth),-37.8157918458049,145.316523888072
10285,Kilsyth Sports Centre/Liverpool Rd (Kilsyth),-37.8124330857872,145.316088987349
10286,Orchard St/Liverpool Rd (Kilsyth),-37.8112501087729,145.315922748948
10287,Luscombe Ct/Liverpool Rd (Kilsyth),-37.809850421307,145.315727360867
10288,Pleasant St/Liverpool Rd (Kilsyth),-37.8064010765732,145.315260502877
1029,Winchester Ave/Derby Dr (Epping),-37.6426541983078,145.044205547606
10291,Belvedere Dr/Swansea Rd (Montrose),-37.8065007863276,145.350959189565
10292,Greenhills Ave/Cambridge Rd (Montrose),-37.803546346607,145.346572388553
10293,Emery Lane/Cambridge Rd (Montrose),-37.802827420196,145.34479380353
10294,Montrose Brickworks Flora Reserve/Cambridge Rd (Montrose),-37.8015505910222,145.340517573154
10295,Acacia Ave/Cambridge Rd (Kilsyth),-37.8012230946619,145.337106121259
10296,Alpine Way/Cambridge Rd (Kilsyth),-37.8009102918769,145.334103259547
10297,Chittenup Bend/Overton Lea Bvd (Sydenham),-37.7061227864254,144.765694254241
10298,Hume Dr/Overton Lea Bvd (Sydenham),-37.7090956494548,144.768021019009
10299,Hume Dr/Copperfield Dr (Delahey),-37.7103930482659,144.770863262944
103,Nicholson St/Johnston St (Abbotsford),-37.8002647178636,144.998067206342
1030,Northumberland Dr/Derby Dr (Epping),-37.6426098511118,145.042076034367
10300,Yellow Gum Rd/Copperfield Dr (Delahey),-37.7138723436657,144.771859323084
10301,Copperfield College Senior Campus/Copperfield Dr (Delahey),-37.7186022585794,144.770844072406
10307,Rex St/Taylors Rd (Delahey),-37.7268619770962,144.776360036663
10308,Longfellow Dr/Taylors Rd (Delahey),-37.7266122216066,144.774109713079
1031,Scarborough Rd/McDonalds Rd (Epping),-37.645439638331,145.035031438532
10315,Rialto St/Main Rd West (St Albans),-37.7416459282352,144.776144590067
10316,Kings Rd/Main Rd West (St Albans),-37.7421207101323,144.78029512335
10317,Buchanan St/Main Rd West (St Albans),-37.7424903491069,144.783654477826
10318,Cleveland St/Main Rd West (St Albans),-37.7428442235805,144.787139167469
1032,Church St/High St (Epping),-37.6455295050754,145.026381375099
10320,Carberry Dr/Gisborne-Melton Rd (Kurunjang),-37.6730898109671,144.598155940731
10321,Riddle Dr/Centenary Ave (Melton),-37.6758798420788,144.594449260926
10322,Raleighs Rd/Centenary Ave (Melton),-37.6752281736955,144.589016982332
10323,Kurunjang Dr/Centenary Ave (Melton),-37.6745408517792,144.58493510733
10324,Melton Cemetery/O'Neills Rd (Melton),-37.6748694217335,144.578110669574
10325,Cassia Rd/O'Neills Rd (Melton),-37.6783077499286,144.577477292098
10326,Church St/O'Neills Rd (Melton),-37.6815009874647,144.577634174744
10327,Alexandra St/Unitt St (Melton),-37.6819798625662,144.58032849181
10328,Joyce St/High St (Melton),-37.6839205979224,144.572600399098
1033,High St/Manningham Rd (Templestowe Lower),-37.774575244064,145.115724682318
10336,Prior Ct/Black Dog Dr (Brookfield),-37.6929604541075,144.558277822255
10339,Emms St/Settlement Rd (Bundoora),-37.6969938398267,145.051636280287
1034,Wedge St/High St (Epping),-37.6504587181647,145.024743390423
10340,Green St/Settlement Rd (Thomastown),-37.6942729569658,145.038097996082
10341,Norris Bank Primary School/Settlement Rd (Thomastown),-37.6948056824667,145.042495731975
10343,Brand Dr/Settlement Rd (Thomastown),-37.6939194173245,145.034727640277
10344,Wood St/Settlement Rd (Thomastown),-37.6936285380209,145.031877353204
10345,Finton Gr/Keon Pde (Thomastown),-37.695281143357,145.016488771555
10346,Keon Park Railway Station/Keon Pde (Thomastown),-37.6948896179854,145.013040109117
10347,High St/Mahoneys Rd (Thomastown),-37.694552423017,145.009612714304
10348,Edgars Rd/Mahoneys Rd (Thomastown),-37.6938376713385,145.002520942732
10349,Lipton Dr/Mahoneys Rd (Thomastown),-37.6933170084736,144.997329380623
1035,Thompsons Heights Shops/Thompsons Rd (Bulleen),-37.7752126578242,145.091502351216
10350,Callander St/Mahoneys Rd (Thomastown),-37.6931347814772,144.995621792516
10351,Clay Ct/Mahoneys Rd (Thomastown),-37.6927859525406,144.992070129962
10352,Lawson Cres/Mahoneys Rd (Thomastown),-37.6921780549406,144.98601917827
10353,Lockton Ave/Mahoneys Rd (Thomastown),-37.6917980353261,144.982241641552
10354,Industrial Ave/Mahoneys Rd (Thomastown),-37.6915471715142,144.979696777303
10355,Phillip St/Mahoneys Rd (Thomastown),-37.6911456265258,144.975727102625
10356,Sydney Rd/Mahoneys Rd (Campbellfield),-37.6895224237382,144.958942092307
10357,Cheviot Rd/Mahoneys Rd (Campbellfield),-37.6899337327049,144.962922652845
10358,Darren Ct/Bernard St (Cheltenham),-37.9529431987995,145.059472007013
10359,Concord Cct/Oakwood Rd (Albanvale),-37.7508925405466,144.768558730742
1036,High St/Mitchell St (Northcote),-37.7720956658126,144.998713715732
10360,Woodland Dr/Oakwood Rd (Albanvale),-37.7460430393369,144.769918723117
10361,Evergreen Ave/Oakwood Rd (Albanvale),-37.7442098030374,144.770189376155
10362,Leckie Dr/Evergreen Ave (Albanvale),-37.743760071652,144.768330403496
10363,Delamare Dr/Evergreen Ave (Albanvale),-37.7435519263017,144.765431497607
10364,Wintersun Dr/Evergreen Ave (Albanvale),-37.7449801542475,144.763289065702
10365,Stephen Calleja Reserve/Opie Rd (Albanvale),-37.7437536538939,144.761816670293
10366,Main Rd West/Opie Rd (Albanvale),-37.7418302422763,144.763032112574
10367,630 Main Rd West (Albanvale),-37.7403007935173,144.765064022176
10368,Balnarring Dr/Main Rd West (Albanvale),-37.7404754358041,144.766670156877
1037,High St/Bastings St (Northcote),-37.7738575185482,144.998450493458
10372,Maplewood Rd/Gillespie Rd (Kings Park),-37.7336190292854,144.775318212306
10373,Beverley St/Gillespie Rd (Kings Park),-37.7340659520995,144.779423738359
10374,Kings Rd/Gillespie Rd (St Albans),-37.7342508595376,144.781585467286
10375,Glenrosa Ct/Gillespie Rd (St Albans),-37.7346197586976,144.785387027538
10376,Atheldene Dr/Gillespie Rd (St Albans),-37.7349293894039,144.788918063178
10377,Andrew Rd/Jamieson St (St Albans),-37.7361171934773,144.788825985039
10378,John St/Jamieson St (St Albans),-37.73894054932,144.787051173568
1038,Andrew St/Bastings St (Northcote),-37.7744255996654,145.003249028108
10381,Parnell St/Bernard St (Cheltenham),-37.9533954286183,145.062851663635
10385,Regent Pde/Bernard St (Cheltenham),-37.9536804216109,145.064835871665
10386,Cheltenham Sec Col/Bernard St (Cheltenham),-37.9540223861292,145.067546996993
10387,Willen St/Bernard St (Cheltenham),-37.9545392545134,145.071585178336
10388,Kingston Centre/Bernard St (Cheltenham),-37.9547545574394,145.075927202847
10389,Warrigal Rd/Kingston Rd (Heatherton),-37.9534011981247,145.078033875951
1039,Sharp St/Bastings St (Northcote),-37.7748313002466,145.006451153674
10390,Kingston Centre/Kingston Rd (Heatherton),-37.953666340617,145.080473909668
10391,St Andrews Dr/Kingston Rd (Heatherton),-37.9539930047705,145.082821312707
10392,Kingston Heath Golf Club/Kingston Rd (Heatherton),-37.9543386946971,145.086340512205
10393,Near Willis St/Kingston Rd (Heatherton),-37.9548282671378,145.090402323172
10394,Pietro Rd/Kingston Rd (Heatherton),-37.9553267086273,145.094463961142
10395,Old Dandenong Rd/Kingston Rd (Heatherton),-37.955973923375,145.09937543406
10397,Peace Rd/Kingston Rd (Clarinda),-37.9569143579426,145.107398038428
10398,Heatherton Christian College/Kingston Rd (Clarinda),-37.9574116701349,145.111425799269
104,Eucalypt Ave/Williamsons Rd (Templestowe Lower),-37.7709788505707,145.128690408638
1040,Northcote St/Bastings St (Northcote),-37.7749931034316,145.008024948063
10400,Victory Road/Clayton Rd (Clayton South),-37.9532411658209,145.114355136115
10402,Unitt St/O'Neills Rd (Melton),-37.6819194233801,144.577824652571
10403,Alexandra St/Unitt St (Melton),-37.6821469410951,144.579688104733
10404,Joyce St/High St (Melton),-37.6840362662936,144.572528594723
1041,Johnson Park/Bastings St (Northcote),-37.7753074486368,145.010627834621
10414,High St/Trethowan Ave (Melton West),-37.6848437397833,144.554484766565
10415,Helen Ct/Trethowan Ave (Melton West),-37.6843942359478,144.551063877453
10416,Bulmans Rd/Westlake Dr (Melton West),-37.682959816189,144.54925153851
1042,Russell St/Bastings St (Northcote),-37.7756571815558,145.013729357157
10421,Warrigal Rd/Waverley Rd (Malvern East),-37.8805105002829,145.092221141586
10422,Margot St/Waverley Rd (Chadstone),-37.8809381804872,145.095814378237
10423,Amaroo St/Waverley Rd (Chadstone),-37.8812598818024,145.098432562462
10424,Baradine St/Waverley Rd (Chadstone),-37.8815962181304,145.101402866326
10426,Nyrang St/Huntingdale Rd (Chadstone),-37.8813338436752,145.10917533118
10427,Melinga Cres/Huntingdale Rd (Chadstone),-37.8781443429001,145.109779896425
10428,Burton St/Huntingdale Rd (Chadstone),-37.8763470887873,145.110098702263
10429,Jordanville Station/Huntingdale Rd (Ashwood),-37.8724554875309,145.110755220114
1043,Grandview Gr/Bastings St (Northcote),-37.775794944511,145.014951865867
10430,Electra Ave/Huntingdale Rd (Ashwood),-37.8705960824012,145.111132401054
10431,High Street Rd/Huntingdale Rd (Ashwood),-37.8674514201537,145.111724261816
10432,Sylvan Cres/Huntingdale Rd (Ashwood),-37.866229586399,145.111960070781
10433,Essex Heights Reserve/Huntingdale Rd (Ashwood),-37.8635340507909,145.112460823772
10434,Eildon Rd/Huntingdale Rd (Ashwood),-37.8622044799894,145.112722087901
10435,Arthur St/Huntingdale Rd (Ashwood),-37.8598766355982,145.113111102601
10436,Leyland Rd/Huntingdale Rd (Ashwood),-37.8574511546507,145.11359350984
10437,Peacock St/Highbury Rd (Burwood),-37.8555513323349,145.114824012452
10438,Station St/Highbury Rd (Burwood),-37.8559575544361,145.118246237696
10439,Goold St/Station St (Burwood),-37.8545030095176,145.119147034272
1044,Duncan St/Rathmines St (Fairfield),-37.7764037777158,145.016320739067
10440,Talbett St/Station St (Burwood),-37.8530925250772,145.119421561367
10441,Station St/Burwood Hwy (Burwood),-37.8506656730617,145.11925591928
10442,Deakin University/Burwood Hwy (Burwood),-37.8501768720783,145.115176849463
10443,Presbyterian Ladies College/Elgar Rd (Burwood),-37.8489065071501,145.10901524788
10444,Daniel St/Elgar Rd (Burwood),-37.846956833911,145.109383267837
10445,Uganda St/Elgar Rd (Burwood),-37.8438838664707,145.109950411795
10446,Cadorna St/Elgar Rd (Burwood),-37.8417271804826,145.110335024124
10447,Wattle Park/Elgar Rd (Burwood),-37.8377508282955,145.110766039842
1045,Wingrove St/Rathmines St (Fairfield),-37.7776439907446,145.016117276868
10451,Corrigan Rd/Henderson Rd (Keysborough),-37.9819168634655,145.164492197147
10452,Walnut Cres/Henderson Rd (Keysborough),-37.981758278357,145.162993247301
10453,Alderney Rd/Henderson Rd (Keysborough),-37.981531633342,145.16117720665
10454,Gwent St/Paterson Rd (Springvale South),-37.9796318477764,145.155531987012
10455,Northgate Dr/Paterson Rd (Springvale South),-37.9791867747942,145.15186570966
10456,Springvale Rd/Paterson Rd (Springvale South),-37.9787016125181,145.147950013443
10457,Springvale Rd/Clarke Rd (Springvale South),-37.9773831306172,145.14605910715
10458,Kingston Gardens Aged Care/Clarke Rd (Springvale South),-37.9757182974841,145.145064994682
1046,Fairfield Railway Station/Wingrove St (Fairfield),-37.7788634031239,145.017889983589
10460,Spring Rd/Clarke Rd (Springvale South),-37.9678130720018,145.140380482048
10461,Camelot Dr/Clarke Rd (Springvale South),-37.9653722305817,145.139326526577
10462,Spring Parks PS/Clarke Rd (Springvale South),-37.9633426924943,145.138637879844
10463,Heatherton Rd/Westall Rd (Springvale),-37.9595898800018,145.136683847903
10465,Bellavista Cres/Westall Rd (Springvale),-37.9551769511712,145.137432731829
10467,Libbett Ave/Westall Rd (Springvale),-37.9521399260495,145.137998824783
10468,Spring Valley Dr/Westall Rd (Springvale),-37.9479084038518,145.138822620138
1047,Fairfield Community Centre/Station St (Fairfield),-37.776673320174,145.01841398804
10470,Westall SC/Rosebank Ave (Clayton South),-37.9407677531622,145.139753810564
10472,Rosebank Ave/Wordsworth Ave (Clayton South),-37.9388179319249,145.131587382563
10473,Oakes Ave/Wordsworth Ave (Clayton South),-37.9367067874062,145.132004958927
10474,Milton Ave/Oakes Ave (Clayton South),-37.9354486329989,145.130523482286
10475,Bevan Ave/Oakes Ave (Clayton South),-37.9351598678369,145.128232369472
10476,Mallawa St/Main Rd (Clayton South),-37.9342997037905,145.127412199865
10477,McMillan St/Main Rd (Clayton South),-37.9327187905474,145.127736766773
10478,Centre Rd/Haughton Rd (Clayton South),-37.9298562727702,145.126808163753
10479,Audsley St/Centre Rd (Clayton South),-37.9290626159316,145.122812080672
1048,Mitchell St/Station St (Fairfield),-37.7741212016775,145.018845441871
10481,St Bedes College/Naples Rd (Mentone),-37.9901841056244,145.068511409108
10482,Olive St/Clayton Rd (Clayton South),-37.9297198633178,145.118824613402
10483,Kimbarra St/Clayton Rd (Clayton South),-37.9319466048459,145.118312738234
10484,Byron St/Clayton Rd (Clayton South),-37.934966785496,145.117826103689
10485,Whiteside Rd/Clayton Rd (Clayton South),-37.9383548379948,145.117239006278
10486,Clayton South PS/Clayton Rd (Clayton South),-37.9408253319943,145.116754927451
10488,Murphy St/Bourke Rd (Clarinda),-37.9428756982633,145.115359799196
10489,Allwen Ct/Bourke Rd (Clarinda),-37.94252126926,145.112364673488
1049,Separation St/Station St (Fairfield),-37.7711384201119,145.019390531406
10490,Glenelg Dr/Bourke Rd (Clarinda),-37.9422097438626,145.10980089607
10491,Springs Rd/Bourke Rd (Clarinda),-37.9417976476045,145.106591098691
10492,Clarinda SC/Bourke Rd (Clarinda),-37.941352204004,145.102995300577
10494,Clarinda Rd/Bourke Rd (Clarinda),-37.9409233810379,145.099319465038
10495,Angus Ct/Bourke Rd (Oakleigh South),-37.9404220119608,145.095622788536
10496,Cedar Ct/Bourke Rd (Oakleigh South),-37.9400943220278,145.093196127238
10497,Barkers St/Old Dandenong Rd (Oakleigh South),-37.9379143241123,145.089360945702
10498,Washington Dr/Old Dandenong Rd (Oakleigh South),-37.9359616155685,145.087317882579
10499,Commonwealth Golf Club/Old Dandenong Rd (Oakleigh South),-37.9339687030495,145.084468123835
105,Trenerry Cres/Johnston St (Abbotsford),-37.8004842174235,145.000378194226
1050,Edwin St/Station St (Fairfield),-37.7693224583958,145.019654687925
10500,Tecoma Ct/Old Dandenong Rd (Oakleigh South),-37.9323798633578,145.082085883565
10501,Warrigal Rd/South Rd (Moorabbin),-37.938637063475,145.078407178976
10502,Kingsway/South Rd (Moorabbin),-37.9380926818194,145.074325015617
10503,Alex Ave/South Rd (Moorabbin),-37.9376871428146,145.07102441053
10504,The Sandbelt Club/South Rd (Moorabbin),-37.9374864105265,145.068128109784
10505,Sullivan St/South Rd (Moorabbin),-37.9369354756355,145.064216941662
10507,Chesterville Rd/South Rd (Moorabbin),-37.9364431475776,145.060588754497
10508,Rowans Rd/South Rd (Moorabbin),-37.9360807528825,145.056649979489
1051,Darebin Rd/Station St (Fairfield),-37.7666624263118,145.02010027541
10510,Fletcher St/South Rd (Moorabbin),-37.9353090793158,145.051948325218
10511,Delhi St/Mitcham Rd (Mitcham),-37.8190587018231,145.193958734405
10512,Agra St/Mitcham Rd (Mitcham),-37.8208545658293,145.194119457624
10513,Lucknow St/Mitcham Rd (Mitcham),-37.8243731778213,145.194374535587
10514,Orient Ave/Mitcham Rd (Mitcham),-37.8269812146831,145.194606375464
10515,Vernal Ave/Mitcham Rd (Mitcham),-37.8284340500198,145.194730035366
10516,Picadilly St/Golf Rd (Oakleigh South),-37.9135768672006,145.089012572742
10517,Metropolitan Golf Club/Golf Rd (Oakleigh South),-37.9111241433867,145.089474152206
10518,North Rd/Golf Links Ave (Oakleigh),-37.9087117265495,145.090753598799
10519,Ryan St/Blyth St (Brunswick East),-37.7674638126785,144.981299216914
1052,John Cain Memorial Park/Station St (Thornbury),-37.7631755729238,145.020681388271
10520,Lee St/Roberts St (Brunswick East),-37.7661485648792,144.982379379213
10521,Stewart St/Nicholson St (Brunswick East),-37.7649556636886,144.980606839557
10522,Glenmorgan St/Nicholson St (Brunswick East),-37.7636275688634,144.979360217143
10523,Lyndhurst Cres/Nicholson St (Brunswick East),-37.7624880863028,144.977552275498
10524,Lygon St/Albion St (Brunswick East),-37.7619489362316,144.972924207244
10525,Leithead St/Albion St (Brunswick),-37.7616018646833,144.970039071206
10526,Austin Tce/Albion St (Brunswick),-37.7614207661653,144.968420774216
10527,De Carle St/Albion St (Brunswick),-37.7610085654467,144.964901792575
10528,Sydney Rd/Albion St (Brunswick),-37.7607854815248,144.962944135641
10529,Anstey Railway Station/217 Albion St (Brunswick),-37.7605745148815,144.961167778177
1053,Clarendon St/Station St (Thornbury),-37.761467698828,145.020942595156
10530,Austral Ave/Albion St (Brunswick),-37.7600460967345,144.956675878139
10531,Patterson St/Albion St (Brunswick),-37.7597399818434,144.954096250178
10532,Thistle St/Albion St (Brunswick),-37.7594236198118,144.9514488209
10534,Cornwall St/Albion St (Brunswick West),-37.7591636922002,144.949458214598
10535,Trenoweth St/Albion St (Brunswick West),-37.7588276301737,144.946720564617
10536,Melville Rd/Albion St (Brunswick West),-37.7586096916719,144.944558566387
10537,Wales St/Albion St (Brunswick West),-37.7582860920927,144.942024931073
10538,Gronn Pl/Albion St (Brunswick West),-37.7579733090067,144.939082389682
10539,Yarrabin St/Albion St (Brunswick West),-37.7576591964753,144.9365825907
1054,Rossmoyne Village/Station St (Thornbury),-37.7595359603655,145.021289212288
10540,Hopetoun St/Albion St (Brunswick West),-37.7574188253272,144.934693700709
10541,Lawson St/Albion St (Essendon),-37.7566794811837,144.932103626144
10542,Tennyson St/Albion St (Essendon),-37.7564640297538,144.930611351796
10543,McPherson St/Albion St (Essendon),-37.7562932295131,144.928584366388
10544,Pascoe Vale Rd/Albion St (Essendon),-37.7559398513338,144.926426283024
10546,Pascoe Vale Rd/Brewster St (Essendon),-37.7513825850563,144.925043999306
10547,Kalimna St/Brewster St (Essendon),-37.7511878710369,144.923199431341
10548,Peterleigh Gr/Brewster St (Essendon),-37.7509743131148,144.921310002133
10549,Napier St/Brewster St (Essendon),-37.7507583210598,144.919284456545
10554,Station St/Cheltenham Rd (Dandenong),-37.9914491182299,145.20934774377
10555,Cheltenham Rd/George St (Dandenong),-37.9893368475481,145.204981003284
10556,Langhorne Pl/Langhorne St (Dandenong),-37.9872604312896,145.214801260091
10557,Langhorne Pl/Langhorne St (Dandenong),-37.9874828567242,145.215205785741
10558,Keneally St/Cheltenham Rd (Dandenong),-37.9899943193787,145.20554571277
1056,Dundas St/Albert St (Preston),-37.7539277705503,145.020587361154
10566,Progress Rd/Wattletree Rd (Eltham North),-37.7027590457987,145.15221939631
10567,Banks Rd/Wattletree Rd (Eltham North),-37.6963558952571,145.149633669445
10568,Glen Gully Rd/Wattletree Rd (Eltham North),-37.6942664884249,145.147428666693
10569,Casuarina Rdge/Wattletree Rd (Eltham North),-37.6906651967543,145.145363523414
1057,Bingo St/Albert St (Preston),-37.7504226978829,145.021157460137
10570,Parry Rd/Ryans Rd (Eltham North),-37.688926774669,145.142560338411
10571,Lesay Dr/Ryans Rd (St Helena),-37.6860495484933,145.142983663461
10574,Happy Valley Rise/Main St (Diamond Creek),-37.673855885306,145.148129154918
10576,Waigo Way/Brooks Cres (Diamond Creek),-37.674786846472,145.157505599955
10579,Hotham Ct/James Cook Dr (Diamond Creek),-37.6800605361918,145.158758526093
1058,Oulton Reserve/Albert St (Preston),-37.7483291925902,145.021531014619
10580,Farrer Cl/James Cook Dr (Diamond Creek),-37.6795607046576,145.162535500819
10581,Patyah St/Phipps Cres (Diamond Creek),-37.6787652674123,145.164698214248
10582,Main Hurstbridge Rd/Phipps Cres (Diamond Creek),-37.6751591050688,145.165195259596
10583,Diamond Creek Plaza/Main Hurstbridge Rd (Diamond Creek),-37.6743672119175,145.159488863803
10587,Amaroo Ct/Broad Gully Rd (Diamond Creek),-37.6689175576652,145.157355983315
10588,Ryan St/Broad Gully Rd (Diamond Creek),-37.6693462324856,145.153649309118
10589,Grassy Flat Rd/Broad Gully Rd (Diamond Creek),-37.6694143789949,145.151096649228
1059,Ovando St/Albert St (Preston),-37.7460373204652,145.021898478046
10590,Clyde St/Collins St (Diamond Creek),-37.6720061001588,145.149705775373
10592,Nillumbik Park/Chute St (Diamond Creek),-37.6733252861981,145.153947526178
10595,Beech St/Alexander Ave (Thomastown),-37.6805870070387,145.017288439162
10596,Frederick St/Alexander Ave (Thomastown),-37.6809475609147,145.020510505904
10597,Acacia St/Alexander Ave (Thomastown),-37.6812548164106,145.023246432747
10598,Nick Ascenzo Reserve/Opp 105 Alexander Ave (Thomastown),-37.6816877508529,145.027033607192
10599,11 Darebin Dr (Thomastown),-37.6818134228451,145.031316544655
106,Clarke St/Johnston St (Abbotsford),-37.8006257893481,145.001816772117
1060,Eton St/Albert St (Preston),-37.7438809451858,145.022285006389
10600,Chapman Ave/Darebin Dr (Thomastown),-37.6818833844851,145.033888726967
10601,Bates Ave/Darebin Dr (Thomastown),-37.6801699566548,145.035442064442
10602,Valentine Ave/Darebin Dr (Thomastown),-37.6786690065791,145.035685758962
10603,McKimmies Rd/Darebin Dr (Thomastown),-37.6760717118886,145.03611709234
10604,Lalor Plaza/Darebin Dr (Lalor),-37.6740499880441,145.036476528704
10605,Donald St/Darebin Dr (Lalor),-37.6692448448388,145.035832237786
10606,Hertford Pl/Darebin Dr (Lalor),-37.6666087603316,145.035017446336
10607,Dalton Rd/Burton St (Lalor),-37.6670985205328,145.031422007114
10608,49 Burton St (Lalor),-37.6669577567965,145.030008592667
10609,Ruthven Cres/Burton St (Lalor),-37.666639957089,145.027171404134
1061,Blake Park/Albert St (Preston),-37.7416279547894,145.022821610455
10610,Cherry Ct/Edmondson St (Lalor),-37.6658719823676,145.024901685935
10611,Edmondson St/Curtin Ave (Lalor),-37.6645282430725,145.02376962679
10612,Newton Cres/Curtin Ave (Lalor),-37.6651522660373,145.021213636835
10617,Peter Lalor Walk/Station St (Lalor),-37.6731266305021,145.015775001385
10618,Heath St/Station St (Thomastown),-37.6765412686494,145.01518513885
10621,Heather Ave/Spring St (Thomastown),-37.6818438140165,145.005246651666
10622,Johnson St/Spring St (Thomastown),-37.6822608401915,145.009124880948
10623,McLeod St/Spring St (Thomastown),-37.6826181516451,145.012675906079
10625,Cook Reserve/Victoria Dr (Thomastown),-37.6735504208863,144.991307587945
10628,Gillwell Rd/Barry Rd (Thomastown),-37.6715118638895,144.993845515835
10631,Franklin Rd/Edgars Rd (Lalor),-37.6701198745612,145.003157074195
10632,Robert St/Edgars Rd (Lalor),-37.6677680594277,145.004240454247
10633,Dion Cl/Edgars Rd (Lalor),-37.6653861403116,145.005143179982
10634,Mount View Rd/Kingsway Dr (Lalor),-37.6646062710717,145.007522086844
10635,Lyndon St/Kingsway Dr (Lalor),-37.6650099855745,145.011150383229
10636,Linoak Ave/Kingsway Dr (Lalor),-37.6652427399049,145.013196126877
10638,Mount View Rd/Main St (Thomastown),-37.6797934177838,145.009769135924
10639,Main Street Rec Reserve/Main St (Thomastown),-37.6794268232083,145.006207170196
10640,Simpson St/Main St (Thomastown),-37.6789548700958,145.001752298215
10644,Alexina St/Alfrieda St (St Albans),-37.7403127331721,144.801138356783
10645,Westvale Church/Alfrieda St (St Albans),-37.7377534576464,144.801622600965
10646,Collins St/Biggs St (St Albans),-37.7369786434536,144.802598700066
10647,Walmer Ave/Biggs St (St Albans),-37.7374354604826,144.806318490118
10648,Leslie St/Biggs St (St Albans),-37.7377674240911,144.809145557426
1065,40 Dorking Rd (Box Hill North),-37.8163666378597,145.131168734055
10655,Sunshine Ave/Stenson Rd (Kealba),-37.7392161487876,144.824592464575
10656,Driscolls Rd/Stenson Rd (Kealba),-37.738270160301,144.828024434732
10657,Harefield Cres/Driscolls Rd (Kealba),-37.736932776707,144.827337293029
10658,Leavesdon Ave/Driscolls Rd (Kealba),-37.734881987538,144.825593067691
10659,Valewood Dr/Driscolls Rd (Kealba),-37.7316875189972,144.822917964709
1066,Crevelli St/Tyler St (Preston),-37.7326756888929,145.02907373151
10660,Green Gully Rd/Driscolls Rd (Kealba),-37.728322927702,144.820792685588
10661,170 Green Gully Rd (Kealba),-37.7287649944265,144.817897811912
10662,17 Taylors Rd (St Albans),-37.7295042631917,144.813053965027
10663,Oslo Way/Taylors Rd (Keilor Downs),-37.7291222529893,144.809468473448
10668,Carbine Way/Taylors Rd (Keilor Downs),-37.7279231256944,144.798316696835
10669,Theodore St/Taylors Rd (Keilor Downs),-37.7280174041325,144.800469637422
1067,Burkitt Ct/Tyler St (Preston),-37.7328882723122,145.031008453453
10670,Keilor Shopping Centre/Taylors Rd (Keilor Downs),-37.7273378356501,144.806071912363
10673,Carbine Way/Goodwood Dr (Keilor Downs),-37.7257885278812,144.795486786132
10674,Goodwood Dr/Belmont Ave (Keilor Downs),-37.7242357962593,144.796304316521
10675,Thornhill Dr/Belmont Ave (Keilor Downs),-37.7236215368908,144.799601312859
10676,Belmont Ave/Copernicus Way (Keilor Downs),-37.7211646016692,144.800740449521
10677,Lancia Dr/Copernicus Way (Keilor Downs),-37.7197167934533,144.798491644808
10678,Goodwood Dr/Copernicus Way (Keilor Downs),-37.7191559210403,144.795002768263
10679,Roseberry Ave/Copernicus Way (Keilor Downs),-37.7177990945031,144.791843884792
1068,Seston St/Tyler St (Reservoir),-37.7331342850227,145.033328106141
10680,Darebin Ave/Copernicus Way (Keilor Downs),-37.7150648799884,144.789724343581
10681,Lady Nelson Way/Copernicus Way (Keilor Downs),-37.7126644419669,144.789546123952
10682,Lady Nelson Way/Chichester Dr (Taylors Lakes),-37.7117239048072,144.793215327185
10683,Cocoparra Cres/Chichester Dr (Taylors Lakes),-37.7096033388986,144.794026889477
10684,Reed Cres/Bond Dr (Taylors Lakes),-37.7037269319317,144.784855142211
10685,Booth Way/Bond Dr (Taylors Lakes),-37.7020462595057,144.781740772972
10687,Ross Smith Ave/Nepean Hwy (Frankston),-38.1415820065103,145.121508642128
10688,O'Grady Ave/Nepean Hwy (Frankston),-38.137862831859,145.123361132115
10689,Mereweather Ave/Nepean Hwy (Frankston),-38.1343886396065,145.124191733082
1069,Sullivan Memorial Park/Seston St (Reservoir),-37.7318715402888,145.033804049517
10690,Allawah Ave/Nepean Hwy (Frankston),-38.1330219962212,145.124386451307
10691,Nepean Hwy/Overton Rd (Frankston),-38.129478823159,145.125412648513
10692,Kananook Ave/Boonong Ave (Seaford),-38.1256807746359,145.126844532182
10693,Fortescue Ave/Boonong Ave (Seaford),-38.1258351661159,145.128049826299
10694,Kananook Primary School/Boonong Ave (Seaford),-38.1261486318027,145.130756918427
10696,Kananook Station/Wells Rd (Seaford),-38.121207487894,145.135115017378
10697,VicRoads Customer Service Center/Hartnett Dr (Seaford),-38.1178429578848,145.140595985236
10698,Peninsula Bvd/Hartnett Dr (Seaford),-38.1148946625179,145.141069983951
10699,Heversham Dr/Hartnett Dr (Seaford),-38.1120777056531,145.141871378943
107,Roseland Gr/St Elmo Rd (Ivanhoe),-37.7606424511555,145.046550600884
1070,Clingin St/Seston St (Reservoir),-37.7291585054492,145.034318326985
10701,Boonong Ave/Fortescue Ave (Seaford),-38.1255162546709,145.127829815014
10702,Buna Ave/Fortescue Ave (Seaford),-38.1233147753147,145.128228279364
10703,McCulloch Ave/Fortescue Ave (Seaford),-38.1210754446693,145.128513611534
10704,Milne Ave/Fortescue Ave (Seaford),-38.1183003609024,145.129109175438
10705,Moresby Ave/Fortescue Ave (Seaford),-38.116396315128,145.129511370296
10706,Bardia Ave/Fortescue Ave (Seaford),-38.1137649858174,145.130080372424
10707,Seaford Rd/Fortescue Ave (Seaford),-38.1109910922643,145.130185333986
10708,Johnstone St/Railway Pde (Seaford),-38.1093361087056,145.129816943786
10709,Seaford Station/Railway Pde (Seaford),-38.1042893532787,145.128668332755
1071,Caddy Ct/Clingin St (Reservoir),-37.7287496966395,145.03250235011
10710,Seaford North Reserve/Railway Pde (Seaford),-38.1003034923035,145.128496331257
10711,Selsey St/Railway Pde (Seaford),-38.0963475585705,145.128506029268
10712,Armstrongs Rd/Railway Pde (Seaford),-38.0929405617134,145.128467506821
10713,Arthur St/Railway Pde (Seaford),-38.0915978341573,145.128467548664
10714,Coolibar Ave/Railway Pde (Seaford),-38.0889132140581,145.127954509755
10715,Attunga Cres/Railway Pde (Seaford),-38.085102780301,145.127481631588
10716,Burrawong Ave/Railway Pde (Seaford),-38.0830073799378,145.127751716104
10717,Kalimna St/Eel Race Rd (Carrum),-38.0817662334522,145.12621002801
1072,Progress Park/Chaleyer St (Reservoir),-37.7284938116433,145.029593082607
10720,Sugar Berry Rise/Scarlet Oak Ave (Melton West),-37.6591171014981,144.566709704186
10721,Stewart St/Nicholson St (Brunswick East),-37.7655752462021,144.980476465489
10722,Glenmorgan St/Nicholson St (Brunswick East),-37.763589981258,144.979270426262
10723,Lyndhust Cres/Nicholson St (Brunswick East),-37.7626137554679,144.978048321971
10724,Lygon St/Albion St (Brunswick East),-37.7620622985774,144.973227602508
10725,Barrow St/Albion St (Brunswick),-37.7615922832228,144.969483113898
10726,Mountfield St/Albion St (Brunswick),-37.7614522958446,144.96815882954
10727,De Carle St/Albion St (Brunswick),-37.7610712264017,144.964877372447
10728,Sydney Rd/Albion St (Brunswick),-37.7609029882309,144.963485774049
10729,Anstey Railway Station/222 Albion St (Brunswick),-37.7605347263642,144.960431040392
1073,Eisenhower St/Chaleyer St (Reservoir),-37.7282938225793,145.027873726952
10730,Austral Ave/Albion St (Brunswick),-37.760100141868,144.956674390872
10731,Westbourne St/Albion St (Brunswick),-37.7594988363248,144.951628362739
10733,Hamilton St/Albion St (Brunswick West),-37.7592026070802,144.949105258594
10734,Wallace St/Albion St (Brunswick West),-37.7589394767797,144.946933140206
10735,Melville Rd/Albion St (Brunswick West),-37.7587518267508,144.945474057677
10736,Bent St/Albion St (Brunswick West),-37.7583813192478,144.942317414578
10737,Gronn Pl/Albion St (Brunswick West),-37.7579915223359,144.939093234997
10738,Yarrabin St/Albion St (Brunswick West),-37.757691847779,144.936388720531
10739,Waxman Pde/Albion St (Brunswick West),-37.7574822749347,144.934714637452
10740,Lawson St/Albion St (Essendon),-37.7569328356537,144.932675453319
10741,Tennyson St/Albion St (Essendon),-37.7566621515703,144.931116607307
10742,McPherson St/Albion St (Essendon),-37.7563833032023,144.928581853884
10743,Pascoe Vale Rd/Albion St (Essendon),-37.7561113904919,144.92644419419
10744,Raleigh St/Pascoe Vale Rd (Essendon),-37.7541522208054,144.925727082991
10745,Pascoe Vale Rd/Brewster St (Essendon),-37.7514832799783,144.924621244139
10746,Shaftesbury St/Brewster St (Essendon),-37.7512167061019,144.922279296003
10747,Napier St/Brewster St (Essendon),-37.7508750058574,144.918747752698
10748,Mashoobra St/Boundary Rd (Coburg North),-37.7186590561715,144.956928739627
10749,Adler Gr/Boundary Rd (Coburg North),-37.7183635212262,144.95391914814
1075,Dorrington Ave/Albert St (Reservoir),-37.7265287443694,145.024720935852
10750,Shorts Rd/Lorensen Ave (Coburg North),-37.7235216067735,144.960868188532
10751,Athol St/Shorts Rd (Coburg North),-37.7235422180733,144.957895082178
10752,Guilfoyle Ave/Shorts Rd (Coburg North),-37.7231847837871,144.954433171489
10756,Merbein St/Sussex St (Pascoe Vale),-37.717532641861,144.951741147466
10757,Kingsley College/South St (Hadfield),-37.7154542112258,144.949858511136
10758,Pascoe Vale Gardens Retirement Village/South St (Hadfield),-37.7150225162737,144.946285626682
10759,Princess St/South St (Hadfield),-37.7146591106155,144.943017189799
1076,Fenwick St/Chadstone Rd (Malvern East),-37.8822798480057,145.079111194261
10760,Cumberland Rd/South St (Hadfield),-37.7144372835846,144.941151539425
10761,West St/South St (Hadfield),-37.7140247313405,144.937657636904
10762,Walter St/West St (Hadfield),-37.7116952439157,144.93740460335
10763,Ila St/West St (Glenroy),-37.7098716838167,144.937738754906
10764,West St/Glenroy Rd (Glenroy),-37.7073928374799,144.937705386151
10765,Sewell Reserve/Glenroy Rd (Glenroy),-37.7070827848211,144.93492359802
10766,Northern Golf Club/Glenroy Rd (Glenroy),-37.7065488824848,144.93017438645
10768,Glenroy College/Cardinal Rd (Glenroy),-37.7046872633401,144.928853718655
10769,St Agnes Ct/Melbourne Ave (Glenroy),-37.7035405110654,144.926163449667
10772,Jeffrey St/Lauricella Ave (Keilor East),-37.7456573078388,144.861389409178
10773,St Damian's PS/Settlement Rd (Bundoora),-37.6976414557976,145.056473611143
10774,Arcade Sq/West Gtwy (Keilor East),-37.7453760697135,144.855337283916
10775,Sterling Dr/Norwood Dr (Keilor East),-37.7418376933025,144.852545640741
10776,28 Sterling Dr (Keilor East),-37.741753106174,144.860775510501
10778,Buckley St/Milleara Rd (Avondale Heights),-37.7521376586474,144.8614411653
10779,Chaumont Dr/Milleara Rd (Avondale Heights),-37.7551970348013,144.860195341364
10780,Holden Ave/Military Rd (Avondale Heights),-37.7570295112066,144.859870124796
10781,Ridley Ave/Military Rd (Avondale Heights),-37.7609043328724,144.861347594218
10782,Westminster Dr/Military Rd (Avondale Heights),-37.7634741051378,144.862420069645
10783,Alexander St/Military Rd (Avondale Heights),-37.7671259875936,144.86402907335
10784,Riverside Ave/Military Rd (Avondale Heights),-37.7696230656316,144.865069755337
10785,Glenside St/Canning St (Avondale Heights),-37.7707602420565,144.868647181519
10786,Rosamond Rd/Mitchell St (Maribyrnong),-37.7832437976076,144.884775406835
10787,Prince St/Mitchell St (Maribyrnong),-37.7835076318262,144.887424865219
10788,Birdwood St/Gordon St (Maribyrnong),-37.785222098593,144.890566764307
10789,Owen St/Gordon St (Maribyrnong),-37.7874677754769,144.890162245781
1079,Preston Primary School/Tyler St (Preston),-37.7308562807814,145.011432311041
10790,Ballarat Rd/Gordon St (Footscray),-37.7907902328819,144.889499947848
10791,Commercial Rd/Ballarat Rd (Footscray),-37.7921112537835,144.892312698183
10792,Victoria University/Ballarat Rd (Footscray),-37.7930125269628,144.895341872188
10793,28 McCubbin Dr (Taylors Lakes),-37.6937034535872,144.774674718635
10794,Overnewton College/Robertsons Rd (Taylors Lakes),-37.6912597148784,144.773636433963
10795,64 Robertsons Rd (Taylors Lakes),-37.687163035091,144.777648471086
10796,Carnarvon Cl/Palmerston Cres (Taylors Lakes),-37.6859634359772,144.780462460504
10797,Warrego Pl/Palmerston Cres (Taylors Lakes),-37.6885918454572,144.782697432256
10798,MacKenzie Cl/Wellesley Dr (Taylors Lakes),-37.6903840435885,144.786953316901
10799,Lawson Ct/Wellesley Dr (Taylors Lakes),-37.6920308805385,144.790193080924
108,Ramu Pde/Waterdale Rd (Heidelberg West),-37.7357108681677,145.048999017741
1080,Tennyson Ave/Tyler St (Preston),-37.730539120256,145.008660845752
10800,Nordic Ave/Wellesley Dr (Taylors Lakes),-37.6941928039838,144.793032130136
10801,43 Verona Dr (Taylors Lakes),-37.6955557161534,144.795554777724
10802,Truro Cres/Verona Dr (Taylors Lakes),-37.6988399766216,144.797215416883
10803,Taylors Lakes SC/Melton Hwy (Taylors Lakes),-37.7017313764871,144.800521059019
10804,Wyperfeld Ave/Sunshine Ave (Keilor Downs),-37.7109437886339,144.804037345711
10806,Swindon Cres/Odessa Ave (Keilor Downs),-37.7155772616674,144.805568109569
10807,Snowdon Cl/Odessa Ave (Keilor Downs),-37.7154767713856,144.807431500866
10808,Keilor Downs Secondary College/Odessa Ave (Keilor Downs),-37.7155343199915,144.810526736475
10809,Cromer Pl/Odessa Ave (Keilor Downs),-37.7183397731112,144.812134465152
1081,McLaughlin Cres/Redleap Ave (Mill Park),-37.6617822809128,145.066330929403
10810,Tarella Dr/Odessa Ave (Keilor Downs),-37.7211836333534,144.812413822542
10811,Antwerp Dr/Odessa Ave (Keilor Downs),-37.723969406561,144.811991492029
10812,Dongola Rd/Sunshine Ave (Keilor Downs),-37.7265992088289,144.812390611866
10813,Green Gully Rd/Sunshine Ave (St Albans),-37.7305672853961,144.815950054022
10814,Fox St/Sunshine Ave (St Albans),-37.7331674337456,144.818154348362
10815,Norman St/Sunshine Ave (St Albans),-37.7350899229823,144.819777273935
10816,William St/Sunshine Ave (St Albans),-37.7383098041537,144.822360830361
10817,Harcourt Ave/Sunshine Ave (St Albans),-37.7406742010247,144.824493035315
10818,Ashton Ave/Sunshine Ave (St Albans),-37.7431093615328,144.826555213139
10819,Sage Ave/Sunshine Ave (St Albans),-37.7451687292073,144.828276699496
1082,High St/Station St (Reservoir),-37.7297130265568,145.005108795986
10820,Sage Ave/Main Rd East (St Albans),-37.7475923943388,144.828251237698
10821,Wahgunyah Dr/Main Rd East (St Albans),-37.7473017119621,144.826171526657
10822,Branston Rd/Main Rd East (St Albans),-37.7471023180254,144.824157252094
10823,Cowper Ave/Main Rd East (St Albans),-37.7466942429532,144.821093663048
10824,Errington Rd/Main Rd East (St Albans),-37.7460762530633,144.815460106939
10825,Leonard Ave/Main Rd East (St Albans),-37.7456044355091,144.811887798951
10826,Errington Reserve/Main Rd East (St Albans),-37.7445487629576,144.80310110357
10827,Edward St/Settlement Rd (Bundoora),-37.6974204917497,145.054551282905
10828,Outlook Rise/Settlement Rd (Bundoora),-37.6970492130444,145.051169821243
10829,Latrobe Ave/Settlement Rd (Bundoora),-37.6962373666137,145.046767869111
10830,Greenhills Rd/Settlement Rd (Bundoora),-37.695447400062,145.044236776895
10831,Norris Cres/Settlement Rd (Bundoora),-37.6947029530712,145.041194182109
10832,Apex Ct/Settlement Rd (Thomastown),-37.6942023787423,145.03602441059
10833,Brand Dr/Settlement Rd (Thomastown),-37.6938644094534,145.03305059848
10834,Hanrahan St/Wood St (Thomastown),-37.693231200935,145.02697717487
10836,Cheddar Rd West/Keon Pde (Reservoir),-37.6961428922958,145.021648870265
10837,Finton Gr/Keon Pde (Reservoir),-37.6955782150348,145.016469513064
10838,Keon Park Railway Station/Keon Pde (Reservoir),-37.6951311123677,145.012931590088
10839,High St/Mahoneys Rd (Reservoir),-37.6948770782537,145.010159755512
1084,Moorhead Dr/Redleap Ave (Mill Park),-37.6635616267227,145.064924362387
10840,William Ruthven Sec College/Mahoneys Rd (Reservoir),-37.6940912365801,145.00259352595
10841,Long St/Mahoneys Rd (Reservoir),-37.6937008108252,144.998702666884
10842,Callander St/Mahoneys Rd (Reservoir),-37.693312571656,144.994947884328
10843,Hughes Pde/Mahoneys Rd (Reservoir),-37.6928435754201,144.990163296487
10844,Lawson Cres/Mahoneys Rd (Reservoir),-37.6923993759678,144.985786372584
10845,Lockton Ave/Mahoneys Rd (Reservoir),-37.6920942385493,144.982698585714
10846,Sheargold Ct/Mahoneys Rd (Reservoir),-37.6916270826455,144.9780502012
10847,Phillip St/Mahoneys Rd (Reservoir),-37.6913665371006,144.975471599827
10848,Janice Ct/Mahoneys Rd (Campbellfield),-37.6902278540534,144.96325481902
10849,Campbellfield Plaza/Mahoneys Rd (Campbellfield),-37.6898618081996,144.959806000386
1085,Buckmaster Dr/Redleap Ave (Mill Park),-37.6651313986677,145.065575143149
10850,Concord Cct/Oakwood Rd (Albanvale),-37.750814705414,144.768731310148
10851,Woodland Dr/Oakwood Rd (Albanvale),-37.7463151650026,144.770012691816
10852,Kardinia Dr/Oakwood Rd (Albanvale),-37.7445098065101,144.770327900839
10854,Delamare Dr/Evergreen Ave (Albanvale),-37.7433947296095,144.765220609203
10855,Wintersun Dr/Evergreen Ave (Albanvale),-37.744611537569,144.763334209778
10856,Stephen Calleja Reserve/Opie Rd (Albanvale),-37.7440491412274,144.761716981032
10857,Main Rd West/Opie Rd (Albanvale),-37.7418866494788,144.763155242325
10858,630 Main Rd West (Albanvale),-37.7404247319623,144.76494681609
10859,Entally Dr/Main Rd West (Albanvale),-37.7406107473035,144.766677437347
1086,Mill Park Stables Shopping Centre/Redleap Ave (Mill Park),-37.667659125387,145.06309468359
10861,Copperfield College Junior Campus/Gillespie Rd (Kings Park),-37.7333246483172,144.771662032535
10862,Maplewood Rd/Gillespie Rd (Kings Park),-37.7337060964008,144.775156750924
10863,Mavis Cres/Gillespie Rd (St Albans),-37.7341731754242,144.779375147018
10864,Kings Rd/Gillespie Rd (St Albans),-37.7343707202308,144.781729398968
10865,Glenrosa Ct/Gillespie Rd (St Albans),-37.7347049212732,144.785123509591
10866,Atheldene Dr/Gillespie Rd (St Albans),-37.7350361913871,144.788846803353
10867,Andrew Rd/Jamieson St (St Albans),-37.7361039299451,144.788599436125
10868,John St/Jamieson St (St Albans),-37.7389474256142,144.786937492666
10869,Shirley St/James St (St Albans),-37.7396464929795,144.788652872021
10870,James St/Emily St (St Albans),-37.7403919627342,144.792364123708
10871,Elizabeth St/Emily St (St Albans),-37.7427436119924,144.791863013821
10872,Scott Ave/Main Rd West (St Albans),-37.7437244018893,144.794670950287
10873,Tintern Gr/Bernard St (Cheltenham),-37.9528229064534,145.059281696069
10874,Parnell St/Bernard St (Cheltenham),-37.9532338628699,145.06234376111
10875,Christensen St/Bernard St (Cheltenham),-37.9535531890316,145.064770924179
10876,Cheltenham Sec Col/Bernard St (Cheltenham),-37.9539669943048,145.068015076462
10877,Dissik St/Bernard St (Cheltenham),-37.9543904651321,145.071304538734
10878,Kingston Centre/Bernard St (Cheltenham),-37.9546019819103,145.075965328057
10879,Kingston Centre/Kingston Rd (Heatherton),-37.9532655220729,145.078003269075
1088,Childs Rd/Betula Ave (Mill Park),-37.6687040382866,145.060323869476
10880,Byng Ave/Kingston Rd (Heatherton),-37.9536009609425,145.080885332299
10881,Ball Rd/Kingston Rd (Heatherton),-37.9539387393923,145.083915317535
10882,Kingston Heath Golf Club/Kingston Rd (Heatherton),-37.9542959367202,145.087035877976
10883,Near Willis St/Kingston Rd (Heatherton),-37.9547117179205,145.090439485529
10884,Pietro Rd/Kingston Rd (Heatherton),-37.9552200875486,145.094557767821
10885,Old Dandenong Rd/Kingston Rd (Heatherton),-37.9557933957325,145.099357324586
10887,Peace Rd/Kingston Rd (Clarinda),-37.9568071769005,145.107457698044
10888,Heatherton Christian College/Kingston Rd (Clarinda),-37.9573858671583,145.11206383907
10889,Kingston Rd/Clayton Rd (Clarinda),-37.9567419083238,145.113491655131
10890,Ryans Rd/Clayton Rd (Clarinda),-37.9511095334571,145.114614496947
10891,Tully Rd/Clayton Rd (Clarinda),-37.9472740187865,145.115395359431
10892,Bodley St/Clayton Rd (Clarinda),-37.9446502153665,145.115872071461
10893,Wellington Rd/Blackburn Rd (Clayton),-37.9178271817259,145.139979294366
10895,Princes Hwy/Blackburn Rd (Clayton),-37.9206037220881,145.139465674775
109,Yarra Bend Park/Studley Park Rd (Kew),-37.801188783957,145.00632190023
10900,Centre Rd/Springs Rd (Clayton South),-37.9280891434347,145.109855399174
10901,Bond St/Springs Rd (Clayton South),-37.930207011418,145.109300546086
10902,Namatjira Park/Springs Rd (Clayton South),-37.9332525246798,145.10871050593
10903,St Andrews Primary School/Bunney Rd (Clarinda),-37.9346142540877,145.108209096026
10906,Wilson St/Argus St (Cheltenham),-37.9584794222858,145.060749025876
10907,Rosewarne Ave/Argus St (Cheltenham),-37.9588107911498,145.06335814747
10909,Primrose Ave/Cavanagh St (Cheltenham),-37.9567820255303,145.066575522104
10914,Bourke Rd/Clarinda Rd (Clarinda),-37.9399646677558,145.097990057625
10915,Elliminya Ct/Clarinda Rd (Clarinda),-37.9382040620149,145.098342673535
10916,Tatiara Ave/Clarinda Rd (Clarinda),-37.9352663443511,145.098907655614
10917,Clarinda Rd/Bunney Rd (Clarinda),-37.9335715409017,145.099986723766
10918,Hanover St/Albion St (Brunswick),-37.7597936328099,144.954072069688
1092,Alexandra Ave/Punt Rd (South Yarra),-37.8307474856618,144.987778947361
10925,Cantala Ave/Lower Plenty Rd (Rosanna),-37.7359936553247,145.077167833406
10926,Kambea Cres/Lower Plenty Rd (Viewbank),-37.7338388347695,145.080979556134
10927,Graham Rd/Lower Plenty Rd (Viewbank),-37.732902462825,145.082694467448
10928,Heidelberg Golf Club/8 Main Rd (Lower Plenty),-37.7290396810269,145.110241653011
10929,Old Eltham Rd/Main Rd (Lower Plenty),-37.7281551027337,145.111841308453
1093,Acland St/Barkly St (St Kilda),-37.8691707972691,144.980777220903
10930,Para Rd/Main Rd (Lower Plenty),-37.725770340327,145.115997845768
10931,Cheverton Rd/Main Rd (Lower Plenty),-37.7250335706676,145.119522452936
10932,Beleura Gr/Main Rd (Montmorency),-37.7256328377802,145.123194802554
10934,Main Rd/Bridge St (Eltham),-37.7188506608653,145.14450200811
10935,Susan St/Bridge St (Eltham),-37.7183519340803,145.140305420545
10937,Adam Cres/Sherbourne Rd (Montmorency),-37.7174299278172,145.137276684479
10938,Rattray Rd/Sherbourne Rd (Montmorency),-37.7149783324929,145.134978413096
10939,Karingal Dr/Sherbourne Rd (Montmorency),-37.712751034625,145.13205072763
1094,Park Orchards Tennis Club/Park Rd (Park Orchards),-37.7777896326458,145.214470214968
10940,Calrossie Ave/Sherbourne Rd (Montmorency),-37.7112814536301,145.129739423174
10941,Baldwin Ave/Sherbourne Rd (Montmorency),-37.7099302011107,145.126937448332
10942,Hughes St/Sherbourne Rd (Montmorency),-37.7096748163471,145.122780724821
10943,Sherbourne Rd/Mountain View Rd (Briar Hill),-37.7091575743142,145.11973098914
10944,Community Hall/Mountain View Rd (Briar Hill),-37.7079177245479,145.118276331099
10945,River St/Mountain View Rd (Briar Hill),-37.7062048882223,145.116550112918
10946,Harold St/Mountain View Rd (Briar Hill),-37.7031840997059,145.115877957144
10947,St Helena Rd/Mountain View Rd (Greensborough),-37.7004838049787,145.114959544678
10948,Henry St/Ester St (Greensborough),-37.7055257284476,145.100063120584
10949,Vermont Pde/McDowell St (Greensborough),-37.7065325552074,145.096555041335
1095,Brighton Rd/Glen Huntly Rd (Elwood),-37.883650975224,144.995970270979
10950,Medbury Ave/Delta Rd (Greensborough),-37.7093369371527,145.09609760498
10951,Sainsbury Ave/Delta Rd (Greensborough),-37.7109853146207,145.095488221912
10952,Nepean St/Delta Rd (Greensborough),-37.7125379217196,145.09452959514
10953,Delta Rd/Elder St (Watsonia),-37.7144308370799,145.092881539464
10954,Elder Street Reserve/63 Elder St (Watsonia),-37.7141154153998,145.090098913153
10955,Yerrawa Dr/Elder St (Watsonia),-37.7130595992525,145.087789118418
10956,Papua St/Elder St (Watsonia),-37.7118614638868,145.086152349178
10959,Watsonia Rd/Greensborough Hwy (Watsonia),-37.7150033778322,145.082622780071
1096,Tennyson St/Glen Huntly Rd (Elwood),-37.8831639731638,144.991719678602
10961,Yallambie Rd/Greensborough Hwy (Yallambie),-37.7203411505523,145.081123721494
10962,Simpson Army Barracks/Greensborough Hwy (Yallambie),-37.7215010002384,145.080957645569
10963,Strathallan Rd/Greensborough Hwy (Yallambie),-37.7246374932731,145.080422855023
10964,O'Keefe St/Bell St (Preston),-37.7462471592627,145.014549990287
10965,Liberty Pde/Bell St (Heidelberg West),-37.7491739155353,145.037012093561
10966,The Mall/Bell St (Heidelberg West),-37.7499141830796,145.041963720784
10967,Melbourne Polytechnic/Bell St (Heidelberg West),-37.7507624608878,145.045289576018
10968,Gotha St/Bell St (Heidelberg Heights),-37.7517800950828,145.04796410646
10969,Edwin St/Bell St (Heidelberg Heights),-37.7527783402669,145.050559768163
1097,Daley St/Glen Huntly Rd (Elwood),-37.8830055782871,144.990359570868
10970,Myrtle St/Bell St (Heidelberg Heights),-37.7538622892007,145.053437012998
10971,Upper Heidelberg Rd/Bell St (Heidelberg Heights),-37.754759082105,145.05589927136
10972,Warringal SC/Cape St (Heidelberg),-37.7557915886721,145.067166174552
10973,Heidelberg Primary School/Darebin St (Heidelberg),-37.7546436230272,145.069704515421
10974,Brown St/Rosanna Rd (Heidelberg),-37.7521240404344,145.070485055043
10975,Reid St/Rosanna Rd (Heidelberg),-37.7500126963895,145.070880394169
10976,St James Rd/Rosanna Rd (Heidelberg),-37.7485754764456,145.071167408897
10977,Station Rd/Rosanna Rd (Rosanna),-37.7459962599587,145.071608897692
10978,Millicent St/Lower Plenty Rd (Rosanna),-37.7404155515935,145.069268445773
10979,Arden Cres/Lower Plenty Rd (Rosanna),-37.7393551017944,145.071100360158
1098,Elwood Canal/Glen Huntly Rd (Elwood),-37.8826764303418,144.987446419543
10980,Milford Gr/Lower Plenty Rd (Rosanna),-37.7379887947033,145.073518900424
10981,Cantala Ave/Lower Plenty Rd (Rosanna),-37.7361211888014,145.076699277988
10982,Kambea Cres/Lower Plenty Rd (Yallambie),-37.7340007540377,145.080408006267
10983,Graham Rd/Lower Plenty Rd (Yallambie),-37.7327108903488,145.08255189557
10985,Old Eltham Rd/Main Rd (Lower Plenty),-37.7282074379227,145.111170532715
10986,Para Rd/Main Rd (Lower Plenty),-37.7265495332242,145.114003843696
10987,Kett St/Main Rd (Lower Plenty),-37.7248642196808,145.119640196689
10988,Looker Rd/Main Rd (Montmorency),-37.7253285131295,145.122759985539
10989,Library Pl/Main Rd (Eltham),-37.715731636629,145.147313895761
1099,Elwood Secondary College/Glen Huntly Rd (Elwood),-37.8823182420338,144.984420387426
10990,Alistair Knox Park/Main Rd (Eltham),-37.7183897171967,145.146135858936
10991,Main Rd/Bridge St (Eltham),-37.7187702976966,145.144549393843
10992,Susan St/Bridge St (Eltham),-37.7183462616723,145.141088373792
10994,Adam Cres/Sherbourne Rd (Eltham),-37.7173510015217,145.137414800503
10995,Stephen St/Sherbourne Rd (Eltham),-37.7148810328356,145.135094298413
10996,Karingal Dr/Sherbourne Rd (Montmorency),-37.7129068506979,145.132784190888
10997,Elmo Rd/Sherbourne Rd (Montmorency),-37.711303608903,145.129999778141
10998,Hyacinth St/Sherbourne Rd (Montmorency),-37.7098037214774,145.126917945356
10999,Hughes St/Sherbourne Rd (Montmorency),-37.7095801920442,145.12193233325
11,Newton Gr/Gallaghers Rd (Glen Waverley),-37.8774445655031,145.178560452376
110,Clifton Gr/St Elmo Rd (Ivanhoe),-37.7638419645436,145.046023697262
1100,Broadway/Glen Huntly Rd (Elwood),-37.8821183242558,144.982220069729
11000,Sherbourne Rd/Mountain View Rd (Briar Hill),-37.7089132599887,145.11966910237
11001,Community Hall/Mountain View Rd (Briar Hill),-37.7076852709102,145.117828473428
11002,River St/Mountain View Rd (Briar Hill),-37.7064962391923,145.116735572524
11003,Harold St/Mountain View Rd (Briar Hill),-37.7030237595318,145.115995444246
11004,St Helena Rd/Mountain View Rd (Greensborough),-37.7003594994695,145.115076116497
11005,Henry St/Ester St (Greensborough),-37.7053554829584,145.100124183158
11006,Vermont Pde/McDowell St (Greensborough),-37.7064325476584,145.096500883922
11007,Medbury Ave/Delta Rd (Greensborough),-37.709317455106,145.096007354455
11008,Sainsbury Ave/Delta Rd (Greensborough),-37.7110461742662,145.095350536907
11009,Nepean St/Delta Rd (Greensborough),-37.7126517301303,145.094322485072
1101,Addison St/Glen Huntly Rd (Elwood),-37.8819036668429,144.980213455743
11010,Delta Rd/Elder St (Watsonia),-37.7143111597635,145.09272578651
11011,Elder Street Reserve/63 Elder St (Watsonia),-37.7140435326092,145.090112103304
11012,Yerrawa Dr/Elder St (Watsonia),-37.7130246698593,145.08785808154
11013,Papua St/Elder St (Watsonia),-37.7117998787729,145.08624468572
11015,Watsonia Rd/Greensborough Hwy (Watsonia),-37.7147841939264,145.081891041074
11016,Torbay St/Greensborough Hwy (Macleod),-37.7180287961717,145.081353561433
11017,Simpson Army Barracks/Greensborough Hwy (Macleod),-37.7216236069478,145.080738916957
11018,Strathallan Rd/Greensborough Hwy (Macleod),-37.7237633233612,145.080422732173
11019,Oban Way/Greensborough Hwy (Macleod),-37.7266025396715,145.079895576418
1102,Glen Huntly Rd/Barkly St (Elwood),-37.8816041722785,144.978516160216
11020,Erskine Rd/Greensborough Hwy (Macleod),-37.7294698850515,145.07943572905
11026,Crampton Cres/Finlayson St (Rosanna),-37.7346252485131,145.071189077352
11027,Pyalong Ave/Finlayson St (Rosanna),-37.7372630635284,145.069373045941
11028,Cremin Ct/Finlayson St (Rosanna),-37.7398393827626,145.068205331667
1103,Elwood Canal/354 Barkly St (Elwood),-37.8789275610438,144.979032753971
11032,Frankston-Flinders Rd/Golf Links Rd (Frankston South),-38.1644307349478,145.137632305277
11033,Brooklyn Ave/Golf Links Rd (Frankston South),-38.1673736486809,145.141369824587
11034,Mount Erin College/Golf Links Rd (Frankston South),-38.1734665000451,145.148851933893
11035,Heatherhill Rd/Robinsons Rd (Frankston South),-38.1758373496022,145.154054607787
11036,Barretts Rd/Robinsons Rd (Langwarrin South),-38.1792230986633,145.178696908763
11037,Warrandyte Rd/Robinsons Rd (Langwarrin South),-38.180135601256,145.186414563771
11038,Gardeners Rd/Robinsons Rd (Langwarrin South),-38.1808488693739,145.192344929893
11039,Nirvana Cl/Robinsons Rd (Langwarrin South),-38.1813366730919,145.19652279922
1104,Meredith St/Barkly St (Elwood),-37.8767802399972,144.979409782539
11040,Donald Rd/Robinsons Rd (Langwarrin South),-38.1821952903813,145.203739899178
11041,West Rd/Robinsons Rd (Langwarrin South),-38.1837531507586,145.208382640994
11042,Western Port Hwy/Robinsons Rd (Langwarrin South),-38.1851254032496,145.219800586167
11043,Middle Rd/Robinsons Rd (Pearcedale),-38.1861757653715,145.229068854434
11044,Hansen Park/Durham Rd (Kilsyth),-37.8011957299225,145.322466196138
11045,North Rd/Durham Rd (Kilsyth),-37.801625467725,145.319105830905
11046,Beatrice St/Durham Rd (Kilsyth),-37.8017984529069,145.317966095969
11049,Lomond Ave/Hawthory Rd (Kilsyth),-37.7986015864223,145.313098034873
1105,Dickens St/Barkly St (Elwood),-37.8737805219644,144.980003340713
11050,Kilsyth Centenary Swimming Centre/Hawthory Rd (Kilsyth),-37.7955631102251,145.31363279096
11051,Cambridge Rd/Hawthory Rd (Kilsyth),-37.7924535295201,145.314237254713
11052,Yarra Hills Sec Col/Cambridge Rd (Kilsyth),-37.791422243542,145.313965422047
11053,Mooroolbark Bowls Club/Hull Rd (Croydon),-37.7903993221547,145.307992504833
11054,Mcilraith Ct/Hull Rd (Croydon),-37.7911874782568,145.306395974581
11055,Kurrajong Ave/Hull Rd (Croydon),-37.7937056232051,145.301648088691
11056,Kincumber Dr/Hull Rd (Croydon),-37.7945028388565,145.298188665891
11058,Glamis Ct/Hull Rd (Croydon),-37.7958722315043,145.293796081446
1106,Blessington St/Barkly St (St Kilda),-37.8708973105294,144.980559559264
11062,Karingal Dr/Lucerne Cres (Frankston),-38.1499158025565,145.166428159744
11063,Yarla Ct/Lucerne Cres (Frankston),-38.149566307582,145.168285605585
11064,Oleosa Ct/Lucerne Cres (Frankston),-38.1482385784258,145.169825135512
11065,Pembroke Ave/Lucerne Cres (Frankston),-38.146386528984,145.168947116613
11066,Escabon Gr/Havana Cres (Frankston),-38.1442327125945,145.168943914295
11067,Havana Cres/Inglenook Cres (Frankston),-38.1421733594632,145.168641673898
11068,Dalpura Cct/Skye Rd (Frankston),-38.1402555303977,145.168746677687
11069,Warrawee Cct/Dalpura Cct (Frankston),-38.1378521029984,145.163147472318
1107,Acland St/Barkly St (St Kilda),-37.8693442788716,144.980908900205
11070,Palkana St/Dalpura Cct (Frankston),-38.1365310293405,145.165108829703
11071,Illira Ave/Dalpura Cct (Frankston),-38.1364614144728,145.169309323362
11072,Elenya Ct/Dalpura Cct (Frankston),-38.1379817618819,145.170298217563
11073,Dalpura Cct/Skye Rd (Frankston),-38.1401663390402,145.168805958742
11074,Havana Cres/Inglenook Cres (Frankston),-38.1424236284465,145.168509899579
11075,Escabon Gr/Havana Cres (Frankston),-38.1442876503081,145.168999595062
11076,Pembroke Ave/Lucerne Cres (Frankston),-38.1462096832574,145.168586381103
11077,Oleosa Ct/Lucerne Cres (Frankston),-38.1483025238427,145.16988059474
11078,Yarla Ct/Lucerne Cres (Frankston),-38.1496307875414,145.168375286149
11079,Karingal Dr/Lucerne Cres (Frankston),-38.14997600856,145.166244064017
1108,Carlisle St/Barkly St (St Kilda),-37.8669547176208,144.981349262106
11080,Chrisholm Institute of TAFE/Beach St (Frankston),-38.1419066459953,145.128860043515
11081,Regina St/Cambridge Rd (Kilsyth),-37.8005555785713,145.330056434968
11082,Balmoral St/Durham Rd (Kilsyth),-37.8006653918478,145.326998666287
11083,Elizabeth Bridge Reserve/Durham Rd (Kilsyth),-37.8010936837946,145.324160851873
11084,Hansen Park/Durham Rd (Kilsyth),-37.8012930535478,145.322339055673
11085,Charles St/Durham Rd (Kilsyth),-37.801921664197,145.317758854239
11086,Liverpool Rd/Mt Dandenong Rd (Kilsyth),-37.8026958023306,145.313913554171
11088,Amelia Ct/Hawthory Rd (Kilsyth),-37.7998131242756,145.31274109792
11089,Lomond Ave/Hawthory Rd (Kilsyth),-37.7974849218166,145.313157507711
1109,Inkerman St/Barkly St (St Kilda),-37.8637292085664,144.981914702951
11090,Kilsyth Centenary Swimming Centre/Hawthory Rd (Kilsyth),-37.7953005400615,145.313547904082
11091,Cambridge Rd/Hawthory Rd (Kilsyth),-37.7925868817261,145.314109300128
11093,Mooroolbark Bowls Club/Hull Rd (Croydon),-37.7903126537424,145.308232965249
11094,Nuraylia Ave/Hull Rd (Croydon),-37.791645184322,145.305635991247
11095,Kurrajong Ave/Hull Rd (Croydon),-37.7941587094576,145.301194793268
11096,Silverley Ley Rd/Hull Rd (Croydon),-37.7945659034636,145.298187218865
11097,Henty Ct/Hull Rd (Croydon),-37.7959182643222,145.293863165625
111,Ivanhoe Civic Centre/Upper Heidelberg Rd (Ivanhoe),-37.7662386309775,145.04544976584
1110,Waterloo Cres/Barkly St (St Kilda),-37.8619149515722,144.982271099479
11100,Karingal SC/Karingal Dr (Frankston),-38.1522746788142,145.165136577357
11101,Naranga Cres/Karingal Dr (Frankston),-38.1496143603304,145.165591242903
11102,Lucerne Cres/Karingal Dr (Frankston),-38.1469850002226,145.165143604573
11103,Iona Ct/Karingal Dr (Frankston),-38.1453910311438,145.163483298768
11104,Bogong Ct/Karingal Dr (Frankston),-38.1444279591421,145.161830050623
11105,Uniting Church/Karingal Dr (Frankston),-38.1427899389519,145.159086971021
11106,Lindrum Rd/Karingal Dr (Frankston),-38.1417017692905,145.157505448917
11107,Devon Ct/Karingal Dr (Frankston),-38.140729608654,145.155852590971
11108,Flam St/Ashleigh Ave (Frankston),-38.1388437900863,145.152260280914
11109,Golconda Ave/Ashleigh Ave (Frankston),-38.1397661946075,145.148460257181
1111,Princes St/Barkly St (St Kilda),-37.8600280481724,144.982595357767
11110,Coral St/Ashleigh Ave (Frankston),-38.1433420359091,145.145494364419
11111,Frankston East PS/Ashleigh Ave (Frankston),-38.1457091417778,145.144738346456
11112,Ashleigh Ave/Beach St (Frankston),-38.1470889562748,145.143094399413
11113,Kelman St/Beach St (Frankston),-38.1458664971974,145.140443795549
11114,Franklin Ct/Beach St (Frankston),-38.1447738895382,145.13802960728
11115,James St/Beach St (Frankston),-38.1435375513356,145.134512312269
11116,Rex St/Beach St (Frankston),-38.1428470954641,145.131894053209
11117,Chisholm Institute Of TAFE/Beach St (Frankston),-38.1420428544424,145.128925026386
11118,Skye Rd/Karingal Dr (Frankston),-38.1366637378913,145.154026719478
1112,St Kilda Junction/Barkly St (St Kilda),-37.8577251868519,144.983362852006
11124,Bald Hill Park/Bunney Rd (Clarinda),-37.934199557664,145.104840409567
11126,Murawa St/Foot St (Frankston),-38.1585379235701,145.130306707966
11127,Payne St/Kambrook Rd (Caulfield North),-37.8782125858634,145.035262512913
11128,Towerhill Rd/Foot St (Frankston South),-38.1607845353001,145.129347660894
11129,Frankston-Flinders Rd/Golf Links Rd (Frankston South),-38.1645287761537,145.138132025368
1113,Union St/Punt Rd (Windsor),-37.8532818910183,144.98385900359
11130,Helvetia Ct/Towerhill Rd (Frankston South),-38.1623927246581,145.133004574086
11131,Moorooduc Hwy/Hastings Rd (Frankston),-38.1527151348206,145.13248678005
11132,Millard St/Moorooduc Hwy (Frankston),-38.1543448336607,145.134100002901
11137,McMurtry Way/Golf Links Rd (Frankston South),-38.1676727374863,145.142047096167
11138,Wilgra Cres/Booran Rd (Caulfield),-37.8831086470783,145.0359624176
11139,Frankston Golf Club/Golf Links Rd (Frankston South),-38.1700746785492,145.145205092867
1114,High St/Punt Rd (Prahran),-37.8502981987113,144.984338062503
11140,Frankston Golf Club/Golf Links Rd (Frankston South),-38.171427851718,145.147008614451
11142,Belgrave Village/Belgrave Hwy (Belgrave),-37.9094655173075,145.352280260452
11143,Winscombe Ave/Burwood Hwy (Belgrave),-37.9071920345043,145.346325302163
11144,Sophia Gr/Burwood Hwy (Tecoma),-37.9063638031967,145.342544845582
11145,Glenfern Rd/Burwood Hwy (Upwey),-37.9060922769295,145.337989885074
11146,Upwey Station/Main St (Upwey),-37.904382443255,145.331795441406
11147,Upwey CFA/Morris Rd (Upwey),-37.9030103625317,145.329096733782
11148,Ferny Creek Ave/Burwood Hwy (Upper Ferntree Gully),-37.8937794902833,145.315647355949
11149,Spring St/Station St (Ferntree Gully),-37.8881555675418,145.29186149931
1115,Greville St/Punt Rd (Prahran),-37.8480688020345,144.984660164481
11150,Alpine St/Station St (Ferntree Gully),-37.8832585390871,145.295351720631
11151,Mountain Gate SC/Ferntree Gully Rd (Ferntree Gully),-37.8833629738898,145.2753029161
11153,Merlynston Railway Station/Lorensen Ave (Coburg North),-37.7214063706178,144.960495078704
11154,Pearcedale Rd/Robinsons Rd (Pearcedale),-38.1871844985717,145.237413571318
11155,Victoria Rd/Pearcedale Rd (Pearcedale),-38.1956498486802,145.236444405161
11156,Rosella Ct/Pearcedale Rd (Pearcedale),-38.2012211053373,145.235384972058
11157,Pearcedale Village SC/Baxter-Tooradin Rd (Pearcedale),-38.2026088642323,145.232987509003
11158,Middle Rd/Baxter-Tooradin Rd (Pearcedale),-38.2017159908583,145.225175025932
11159,Western Port Hwy/Baxter-Tooradin Rd (Langwarrin South),-38.2004596147082,145.214825011377
1116,Commercial Rd/Punt Rd (South Yarra),-37.8452752327712,144.985190794195
11160,West Rd/Baxter-Tooradin Rd (Langwarrin South),-38.1997322096025,145.205535812003
11161,Highfield Dr/Baxter-Tooradin Rd (Langwarrin South),-38.1993518379803,145.192492646049
11162,Warrandyte Rd/Baxter-Tooradin Rd (Langwarrin South),-38.199107695045,145.183100468728
11163,St Kilda St/Baxter-Tooradin Rd (Baxter),-38.1982683118758,145.176623743007
11164,Baxter Station/Baxter-Tooradin Rd (Baxter),-38.1953028396093,145.157536912583
11166,Stornoway Dr/Baxter-Tooradin Rd (Baxter),-38.1948618419435,145.154704759564
11169,Japonica Gr/Poinciana St (Frankston South),-38.1643869536423,145.126949962675
1117,"South Yarra, Argo St/Punt Rd",-37.8434699632525,144.985546756355
11170,Coniston Dr/Marykirk Dr (Wheelers Hill),-37.9122498976988,145.192080249568
11171,Chipping Hill Ct/Marykirk Dr (Wheelers Hill),-37.9115934696268,145.193347549829
11172,Harlingford Ct/Garnett Rd (Wheelers Hill),-37.9110982570651,145.195725612333
11173,Bladen St/Garnett Rd (Wheelers Hill),-37.9128768113482,145.198287041772
11174,Bellara Way/Garnett Rd (Wheelers Hill),-37.9155167954397,145.200019949225
11175,Tanya Pl/Garnett Rd (Wheelers Hill),-37.9190536827021,145.199706207125
11176,Whalley Dr/Garnett Rd (Wheelers Hill),-37.9220112337013,145.199224535175
11177,Carol St/Borg Cres (Scoresby),-37.8979111062072,145.222193605073
11178,Sandvyk Ct/Borg Cres (Scoresby),-37.8965232974197,145.220407387273
11179,Redcourt Reserve/Taunton Cres (Scoresby),-37.8954639493732,145.220080355141
1118,Lang St/Punt Rd (South Yarra),-37.8408475297434,144.986072656518
11180,Boyd Ct/Taunton Cres (Scoresby),-37.8946469282453,145.218496546095
11181,Seville Gr/Berrabri Dr (Scoresby),-37.893445042516,145.217683986483
11182,Blake Ct/Berrabri Dr (Scoresby),-37.8917650521933,145.216246166666
11183,Paulette Ct/Berrabri Dr (Scoresby),-37.8900037211066,145.217766974753
11184,Somes St/George St (Scoresby),-37.8891118083019,145.221359101564
11186,Kurnai Ave/Henty St (Reservoir),-37.7176110413859,144.984513786364
11187,View St/Gilbert Rd (Reservoir),-37.7196432506884,144.99322841722
11188,Carrington Rd/Gilbert Rd (Reservoir),-37.7221782317205,144.992853675402
11189,Fulham Gr/Gilbert Rd (Reservoir),-37.7237685523431,144.99257248505
1119,Toorak Rd/Punt Rd (South Yarra),-37.8378933655972,144.98669844081
11190,Knox St/Gilbert Rd (Reservoir),-37.7255564629194,144.992251907352
11191,Edwardes St/Kelsby St (Reservoir),-37.7148606123028,144.998156115143
11192,Leamington St/Kelsby St (Reservoir),-37.7124885163747,144.998571620916
11193,Griffiths St/Leamington St (Reservoir),-37.7116391709113,144.995259389924
11194,Epstein St/Leamington St (Reservoir),-37.7113161197655,144.992693060663
11195,Gill St/Banbury Rd (Reservoir),-37.7123067138887,144.989478687356
11196,Edwardes St/Banbury Rd (Reservoir),-37.7139957265537,144.98917211537
112,Ivanhoe SC/Upper Heidelberg Rd (Ivanhoe),-37.7665158079233,145.04531759291
1120,Shipley St/Punt Rd (South Yarra),-37.8364382175417,144.986976627179
1121,Domain Rd/Punt Rd (South Yarra),-37.834022752058,144.987485428317
1122,Alexandra Pde/Punt Rd (South Yarra),-37.8310396103754,144.987998252421
1123,Swan St/Punt Rd (Richmond),-37.8244421983891,144.989006809801
1124,Rowena Pde/Punt Rd (Richmond),-37.821143387685,144.989505333635
1125,Bridge Rd/Hoddle St (Richmond),-37.8171903105458,144.99021467345
11250,Coreen Ave/Balcombe Rd (Beaumaris),-37.9783979075391,145.041337255112
11251,Plummer Rd/Florence St (Mentone),-37.9820596797347,145.058910156457
11252,Davies St/Florence St (Mentone),-37.9824725470222,145.062633740819
11254,Patty St/Nepean Hwy (Mentone),-37.9781936814054,145.067664548323
11255,Latrobe St/Nepean Hwy (Cheltenham),-37.9751639867862,145.065364659901
11256,Evesham St/Nepean Hwy (Cheltenham),-37.9699951154548,145.06122011596
11257,Nepean Hwy/Playne St (Frankston),-38.1444664003915,145.120989635124
11258,Fernery Lane/Nepean Hwy (Frankston),-38.1500374168994,145.114924008405
11259,Grand View Gr/Nepean Hwy (Frankston),-38.1523449868689,145.112719130458
1126,West Richmond Railway Station/Hoddle St (Richmond),-37.8151858737808,144.990518949377
11260,Plummer Ave/Nepean Hwy (Frankston South),-38.1545304691437,145.109090715114
11261,Grange Rd/Nepean Hwy (Frankston South),-38.1584473260849,145.104983576057
11262,Bembridge Ave/Nepean Hwy (Frankston South),-38.1603778881719,145.103997702914
11264,Daveys Bay Rd/Old Mornington Rd (Mount Eliza),-38.1680236688277,145.097007992899
11265,Jacksons Rd/Old Mornington Rd (Mount Eliza),-38.1707721204611,145.095338422325
11266,Toorak College/Old Mornington Rd (Mount Eliza),-38.1742572026579,145.094083312633
11267,Richman Dr/Old Mornington Rd (Mount Eliza),-38.1768200424158,145.093194597322
11268,Barton Dr/Old Mornington Rd (Mount Eliza),-38.1797771677597,145.092169952603
11269,Mount Eliza SC/Mount Eliza Way (Mount Eliza),-38.1831420451341,145.090175564457
1127,York St/Hoddle St (Richmond),-37.8127063553439,144.990972397427
11270,Claire Robinson Park/Heatherton Rd (Narre Warren North),-37.9819807317457,145.313792137316
11271,Coonara Ave/Mount Eliza Way (Mount Eliza),-38.1938659978813,145.090751815843
11272,Peninsula Grammar/Nepean Hwy (Mount Eliza),-38.1954623826807,145.09083572653
11273,Peninsula Grammar/Nepean Hwy (Mount Eliza),-38.1972236642157,145.087763684904
11274,Kunyung Rd/Nepean Hwy (Mount Eliza),-38.1998283422039,145.083367579545
11275,Volitans Ave/Nepean Hwy (Mount Eliza),-38.2033037716602,145.078776970043
11276,George Vowell Aged Care/Nepean Hwy (Mount Eliza),-38.2075836982852,145.073251066239
11277,Shotton Rd/Nepean Hwy (Mount Eliza),-38.2117137893459,145.067945474629
11278,Oakbank Rd/Nepean Hwy (Mornington),-38.2156961499276,145.062985850473
11279,Peninsula Home SC/Nepean Hwy (Mornington),-38.2192073166442,145.058426569774
1128,Victoria Pde/Hoddle St (Richmond),-37.8103243679892,144.991332296939
11280,Carramar St/Bungower Rd (Mornington),-38.2210319649495,145.059234762109
11281,Fitzgerald St/Robertson Dr (Mornington),-38.2236350610594,145.062980895985
11282,Hardy St/Robertson Dr (Mornington),-38.2256922325971,145.059864846469
11283,Mornington Park PS/Robertson Dr (Mornington),-38.2258807689159,145.057643687665
11284,Jacana St/Robertson Dr (Mornington),-38.2248126995328,145.055181824504
11288,Mornington Park/Esplanade (Mornington),-38.2167822695377,145.03508734482
11289,Townsend Lane/Esplanade (Mornington),-38.2216585189528,145.032465989497
1129,Langridge St/Hoddle St (Abbotsford),-37.8069475631789,144.992014441041
11290,Williams Rd/Esplanade (Mornington),-38.2249800906647,145.031177047682
11291,Webb St/Esplanade (Mornington),-38.2266316612092,145.029179091735
11292,Strachans Rd/Esplanade (Mornington),-38.2304240072744,145.026414899555
11293,Johns Rd/Esplanade (Mornington),-38.2346470857576,145.02783164025
11294,Fossil Beach/Esplanade (Mount Martha),-38.2403640073604,145.029665221159
11295,Bentons Rd/Esplanade (Mount Martha),-38.2439287503917,145.029980312039
11296,Shanns Ave/Esplanade (Mount Martha),-38.2505505255087,145.028281679598
11297,Craigie Rd/Esplanade (Mount Martha),-38.2534776002819,145.026579824035
11298,Keilor Golf Course/Calder Fwy (Keilor North),-37.688099113564,144.785728506258
113,Seddon St/Upper Heidelberg Rd (Ivanhoe),-37.7681757773558,145.043253129505
1130,Gipps St/Hoddle St (Abbotsford),-37.8047639306157,144.992380257013
11301,Warland Rd/Carrington St (Hampton East),-37.9358518859209,145.033660402195
11302,Dane Rd/Spring Rd (Hampton East),-37.9407507291664,145.033450178366
11303,Besant St/Spring Rd (Hampton East),-37.9427437743376,145.032998767779
11308,June St/Bluff Rd (Hampton),-37.9448012384356,145.022417694728
11309,Abberfield Nursing Home/Bluff Rd (Sandringham),-37.9482952470837,145.021732236891
1131,Vere St/Hoddle St (Abbotsford),-37.8028047129601,144.992694541511
11310,Sandringham College Highett/Bluff Rd (Sandringham),-37.9505402558746,145.021262313514
11311,Bay Rd/Bluff Rd (Sandringham),-37.9547703837437,145.020409018136
11313,Ebden Ave/Balcombe Rd (Black Rock),-37.9756546918963,145.018527427689
11314,Cullinane St/Balcombe Rd (Black Rock),-37.9761608391088,145.020756564976
11315,Hunter Ave/Balcombe Rd (Black Rock),-37.976494810066,145.024003580868
11316,Summerhill Rd/Balcombe Rd (Beaumaris),-37.9767862014093,145.026329613207
11317,Haydens Rd/Balcombe Rd (Beaumaris),-37.9771856957333,145.030269398308
11318,Beaumaris Secondary Col/Balcombe Rd (Beaumaris),-37.9775247977135,145.033300059708
11319,Reserve Rd/Balcombe Rd (Beaumaris),-37.9783083842494,145.035430882464
1132,Truro St/Hoddle St (Abbotsford),-37.7977277641675,144.993558831335
11320,Dalgetty Rd/Balcombe Rd (Beaumaris),-37.9782525511874,145.039644773278
11321,Coreen Ave/Balcombe Rd (Beaumaris),-37.9785135810179,145.041789576408
11322,Haywood St/Balcombe Rd (Beaumaris),-37.9788388394088,145.04454747848
11323,10 Florence St (Mentone),-37.9822922068378,145.059894570203
11324,Davies St/Florence St (Mentone),-37.9826288730866,145.062276675983
11327,Royal Oak Hotel/Nepean Hwy (Cheltenham),-37.972874188419,145.063671631595
11328,Nepean Hwy/Playne St (Frankston),-38.1444560498343,145.121469155233
11329,Frankston Pier/Nepean Hwy (Frankston),-38.1475248610426,145.116711797887
1133,Noone St/Hoddle St (Clifton Hill),-37.7935151524047,144.994376900398
11330,Fernery Lane/Nepean Hwy (Frankston),-38.1498651702543,145.114859973118
11331,Grand View Gr/Nepean Hwy (Frankston),-38.1517918223233,145.113064336565
11332,Beachside Car Park/Nepean Hwy (Frankston),-38.154378995559,145.108638133616
11333,Grange Rd/Nepean Hwy (Frankston South),-38.1581033756619,145.104889764436
11334,Bembridge Ave/Nepean Hwy (Frankston South),-38.1598646331045,145.10402241183
11335,Ellenvale Dr/Kurrajong Rd (Narre Warren),-38.0025187949547,145.316294343044
11336,Daveys Bay Rd/Old Mornington Rd (Mount Eliza),-38.1683502931784,145.096588575596
11337,Stephens Rd/Old Mornington Rd (Mount Eliza),-38.171477429402,145.094931950618
11338,Toorak College/Old Mornington Rd (Mount Eliza),-38.1747125158975,145.093820308897
11339,Richman Dr/Old Mornington Rd (Mount Eliza),-38.1767464985334,145.093105187925
1134,North Tce/Hoddle St (Clifton Hill),-37.790701738895,144.994805012952
11340,Barton Dr/Old Mornington Rd (Mount Eliza),-38.1795962735819,145.092129006154
11341,Mount Eliza SC/Mount Eliza Way (Mount Eliza),-38.1832590520442,145.089613084042
11342,Wimborne Ave/Mount Eliza Way (Mount Eliza),-38.1869517936779,145.089493773994
11343,Coonara Ave/Mount Eliza Way (Mount Eliza),-38.193827368144,145.09059296598
11344,Koetong Pde/Nepean Hwy (Mount Eliza),-38.1962418574211,145.088896999257
11345,Kunyung Rd/Nepean Hwy (Mount Eliza),-38.1990913395598,145.084037806509
11346,Volitans Ave/Nepean Hwy (Mount Eliza),-38.2026963059455,145.079101276409
11347,High St/Trethowan Ave (Melton West),-37.6848555661833,144.554620444521
11348,Helen Ct/Trethowan Ave (Melton West),-37.6842866452471,144.551090094477
11349,Bulmans Rd/Westlake Dr (Melton West),-37.682878245965,144.549662411999
1135,Clifton Hill Station/Hoddle St (Clifton Hill),-37.7886892335518,144.995166019627
11350,Jonson Ave/Westlake Dr (Melton West),-37.6822986312369,144.547357103163
11359,Galilee Bvd/Centenary Ave (Melton West),-37.6721778901415,144.565999612007
1136,Alva Ave/Park Rd (Park Orchards),-37.7779215467573,145.21187825651
11360,286 Coburns Rd (Melton),-37.6709010413322,144.570938827669
11361,Coburns Rd/McBurnie Dr (Kurunjang),-37.6678121880638,144.571912456792
11362,Lagarna Dr/Adam Way (Kurunjang),-37.6686377217464,144.574368226069
11363,Bree Ct/Lagarna Dr (Kurunjang),-37.6713693801087,144.575741716925
11366,The Grove/Caroline Springs Bvd (Caroline Springs),-37.7419679455786,144.735804116114
11367,Mitchell St/Hampstead Rd (Maidstone),-37.7812027702668,144.871526415117
11368,Emu Rd/Hampstead Rd (Maidstone),-37.7786081993101,144.875563337184
11369,Wattle Rd/Hampstead Rd (Maidstone),-37.7767326463438,144.878500840017
1137,Kebun Ct/Park Rd (Park Orchards),-37.7811999928886,145.210561580515
11370,Williamson Rd/Rosamond Rd (Maribyrnong),-37.7765656374583,144.885249622139
11371,Lindenow St/Rosamond Rd (Maribyrnong),-37.7795658525802,144.884709952815
11372,Pridham St/Rosamond Rd (Maribyrnong),-37.7814068001483,144.884350900639
11373,Mitchell St/Rosamond Rd (Maribyrnong),-37.7834737378945,144.884030801022
11374,Inkerman St/Rosamond Rd (Maidstone),-37.7867877605956,144.883402579072
11375,24 Buckley St (Footscray),-37.8040221548414,144.898220876181
11378,Buckley St/Victoria St (Seddon),-37.8037172699767,144.892255351823
1138,Enfield Ave/Park Rd (Park Orchards),-37.7848331371762,145.207680535595
11380,Navan Park/Opp 284 Coburns Rd (Melton),-37.6716077893165,144.570689039386
11384,Galilee Bvd/Centenary Ave (Harkness),-37.6720714646727,144.566082448858
11385,The Crossing/Caroline Springs Bvd (Caroline Springs),-37.7355285405825,144.74069799094
11386,Coburns Rd/McBurnie Dr (Kurunjang),-37.6676716033857,144.572087083851
11387,Lagarna Dr/Adam Way (Kurunjang),-37.6689635447362,144.574436970809
11388,Bree Ct/Lagarna Dr (Kurunjang),-37.6716506418562,144.575834593836
11389,The Grove/Caroline Springs Bvd (Caroline Springs),-37.7423663997988,144.735905452795
1139,396 Park Rd (Park Orchards),-37.7862774366681,145.203103408901
11390,Harvester Rd/Ballarat Rd (Sunshine),-37.7770205968657,144.830001526581
11391,Keith St/Hampstead Rd (Maidstone),-37.7811024627167,144.871461167459
11392,Emu Rd/Hampstead Rd (Maidstone),-37.7788319415394,144.874977883044
11393,Mt Dandenong Rd/Canterbury Rd (Montrose),-37.8123373143416,145.336618254844
11394,River St/Rosamond Rd (Maribyrnong),-37.7789398403538,144.884977585781
11395,Marsh St/Rosamond Rd (Maribyrnong),-37.7808886703223,144.88460411389
11396,Ash Gr/Canterbury Rd (Montrose),-37.8140876472735,145.332296237407
11397,Mitchell St/Rosamond Rd (Maribyrnong),-37.7826399539143,144.884270317164
11398,Delacey St/Rosamond Rd (Maidstone),-37.7854422076284,144.883747554701
114,Upper Heidelberg Rd/Seddon St (Ivanhoe),-37.7687545503311,145.04337410463
1140,Whitefriars College/Park Rd (Donvale),-37.7933066341135,145.198367751249
11400,Footscray Bus Depot/45 Buckley St (Seddon),-37.8039186788308,144.896463355682
11402,Middle Footscray Railway Station/Buckley St (Seddon),-37.8034361541747,144.892660863521
11403,Austin St/Victoria St (Seddon),-37.8055168582587,144.892101961294
11404,Gamon St/Charles St (Seddon),-37.8065907175834,144.89067436942
11405,Henry St/Charles St (Seddon),-37.8061804226118,144.887392195535
11407,Park & Ride/Millers Rd (Altona North),-37.8468688826078,144.844694846768
1141,McKean St/Dorking Rd (Box Hill North),-37.8129975045795,145.131821669533
11414,Ryans Rd/Clayton Rd (Clayton South),-37.9511293731934,145.114727797753
11415,Tully Rd/Clayton Rd (Clayton South),-37.947572197207,145.115444641591
11416,Fraser Rd/Clayton Rd (Clayton South),-37.9444998107498,145.11604660997
11417,Wellington Rd/Blackburn Rd (Clayton),-37.9170595015838,145.139873501694
11418,Princes Hwy/Blackburn Rd (Clayton),-37.9207624536016,145.139245527593
1142,Tyne St/Dorking Rd (Box Hill North),-37.8109399876856,145.132214307328
11423,Centre Rd/Springs Rd (Clayton South),-37.9280604745489,145.109753738263
11424,Bond St/Springs Rd (Clayton South),-37.9303079282462,145.109411736498
11425,Namatjira Park/Springs Rd (Clayton South),-37.9333892915872,145.108809403109
11426,St Andrews Primary School/Bunney Rd (Clarinda),-37.934601630362,145.107424321105
11427,Bald Hill Park/Bunney Rd (Clarinda),-37.9342605983771,145.104713681842
11428,Clarinda Rd/Bunney Rd (Clarinda),-37.9336632745477,145.100086764515
11429,Tatiara Ave/Clarinda Rd (Clarinda),-37.9355292314092,145.099003287724
1143,Whitefriars Monastery/Park Rd (Donvale),-37.7977696026914,145.194965703521
11430,Elliminya Ct/Clarinda Rd (Clarinda),-37.9382873407014,145.098477072553
11431,Bourke Rd/Clarinda Rd (Clarinda),-37.9399850747067,145.098137459226
11435,Primrose Ave/Cavanagh St (Cheltenham),-37.9563794788155,145.066756801197
11436,Cavanagh St (south)/Friendship Sq (Cheltenham),-37.9598884138803,145.066414381133
11437,Cavanagh St (north)/Friendship Sq (Cheltenham),-37.9586781565692,145.066798962113
11438,Fairview Ave/Argus St (Cheltenham),-37.9590851094731,145.064694011464
11439,Rosewarne Ave/Argus St (Cheltenham),-37.9588974966741,145.063150995238
1144,Savaris Ct/Park Rd (Donvale),-37.8017290179121,145.191643665857
11440,Wilson St/Argus St (Cheltenham),-37.9585983994996,145.060859714972
11441,Kimberley Dr/Black Springs Rd (Chirnside Park),-37.757614119082,145.310601331725
11444,Keilor Downs Secondary College/Wanaka Dr (Keilor Downs),-37.7147997182372,144.810276108813
11445,Brushy Park Rd/Black Springs Rd (Wonga Park),-37.7550693475694,145.290999362053
11446,Harris Rd/Brushy Park Rd (Wonga Park),-37.7449656947049,145.28287863122
11447,Toppings Rd/Homestead Rd (Wonga Park),-37.7390178600985,145.282278415896
11448,Jumping Creek Rd/Homestead Rd (Wonga Park),-37.7349085711399,145.282918082081
11449,Dudley Rd/Jumping Creek Rd (Wonga Park),-37.7360758756177,145.272757336692
1145,Tunstall Square Shopping Centre/Tunstall Rd (Doncaster East),-37.7914948091263,145.170861247629
11451,Harrow St/William St (Box Hill),-37.8221886774291,145.12778401294
11452,Glenmore Street Reserve/William St (Box Hill),-37.8233563315105,145.127538644255
11453,Albion Rd/William St (Box Hill),-37.8245063292211,145.127316436028
11454,Victoria St/Albion Rd (Box Hill),-37.8250222202313,145.129723374626
11455,Cherryhinton St/Barkly St (Box Hill),-37.826454558906,145.130255294105
11456,Jolie Gr/Barkly St (Box Hill),-37.8276854568352,145.130019712598
11457,Canterbury Rd/Barkly St (Box Hill),-37.8292309244158,145.129730731675
11458,Wembley Park/Canterbury Rd (Box Hill),-37.8300294465439,145.133482812478
11459,Middleborough Rd/Canterbury Rd (Box Hill),-37.8304532722051,145.137483006635
1146,Tunstall Rd/St Clems Rd (Doncaster East),-37.7968763377174,145.169206661197
11460,Pakenham St/Canterbury Rd (Blackburn),-37.8307934588058,145.140190043949
11462,Donald St/Canterbury Rd (Blackburn),-37.8311585865783,145.143339614247
11463,Wreford Rd/Canterbury Rd (Blackburn),-37.8314765092139,145.145785927922
11464,Canterbury Rd/Main St (Blackburn),-37.8315711354786,145.148362833097
11465,Molleton St/Main St (Blackburn),-37.8288490779074,145.148908085021
11466,Molleton St/Main St (Blackburn),-37.8287575649257,145.148819475845
11467,Heath St/Main St (Blackburn),-37.8276347228786,145.149052049449
11469,Linum St/Main St (Blackburn),-37.824502816179,145.149323443848
1147,Thomas Walk/Greendale Rd (Doncaster East),-37.7975977196756,145.165179738791
11470,The Avenue/Main St (Blackburn),-37.8233976317799,145.149532830345
11473,Nodosa Gr/Scarlet Oak Ave (Melton West),-37.6595488592336,144.568418530437
11475,Covenant House Aged Care/Blackburn Rd (Blackburn),-37.8323003610922,145.156355207979
11476,Lagoona Ct/Canterbury Rd (Blackburn),-37.8329894951339,145.158928743369
11477,Pacific Way/Mahoneys Rd (Forest Hill),-37.8386301049007,145.165799816556
11478,Paul Rd/Mahoneys Rd (Forest Hill),-37.8402657610627,145.165509294779
11479,Mahoneys Reserve/Mahoneys Rd (Forest Hill),-37.8436909218262,145.164969852099
1148,Kenneth St/Thompsons Rd (Bulleen),-37.773622381134,145.095142294031
11480,Romoly Dr/Mahoneys Rd (Forest Hill),-37.8455067436468,145.164674820819
